,AcceptsAndroidPay,AcceptsApplePay,AcceptsBitcoin,AcceptsCreditCards,AgesAllowed,Alcohol,Ambience,Attire,BestNights,BikeParking,ByAppointmentOnly,CannabisProducts,Caters,CoatCheck,Delivery,DogsAllowed,Drive-Thru,Fri,GenderNeutralRestrooms,GoodFor,GoodForDancing,GoodforGroups,GoodforKids,GoodforWorking,HappyHour,HasPoolTable,HasTV,Mon,Music,NoiseLevel,OffersMilitaryDiscount,OutdoorSeating,Parking,Sat,Smoking,Sun,Take-out,TakesReservations,Thu,Tue,WaiterService,Wed,WheelchairAccessible,Wi-Fi,area,claimed status,health inspect,id,latitude,longitude,price,rating,related0,related1,related2,review,tag,title,url
0,No,No,,Yes,,FullBar,Casual,Casual,,Yes,,,Yes,,No,,,8:00 am - 10:00 pm,,"Breakfast,Brunch,Lunch",,Yes,Yes,,,,Yes,Closed,,Average,,No,Street,8:00 am - 10:00 pm,,8:00 am - 6:00 pm,Yes,No,8:00 am - 9:00 pm,8:00 am - 9:00 pm,Yes,8:00 am - 9:00 pm,,Free,MI Detroit Bagley,Claimed,,kuzzos-chicken-and-waffles-detroit,42.4344461611812,-83.1419555707948,Moderate,4.0,new-center-eatery-detroit,bakers-keyboard-lounge-detroit,motor-city-soul-food-detroit,247,"Southern,Waffles,Breakfast&Brunch",Kuzzos Chicken & Waffles,https://www.yelp.com/biz/kuzzos-chicken-and-waffles-detroit?osq=food
1,,,,Yes,,No,,Casual,,Yes,,,Yes,,Yes,,,11:00 am - 7:00 pm,,Lunch,,No,Yes,,,,No,Closed,,Quiet,,No,,11:00 am - 7:00 pm,,12:30 pm - 5:00 pm,Yes,No,11:00 am - 7:00 pm,11:00 am - 7:00 pm,No,11:00 am - 7:00 pm,,No,MI Detroit Bagley,Claimed,,chef-gregs-soul-n-the-wall-detroit,42.424164,-83.160839,Inexpensive,5.0,bakers-keyboard-lounge-detroit,connie-and-barbaras-soul-food-restaurant-detroit,motor-city-soul-food-detroit,8,"American(New),SoulFood",Chef Greg’s Soul -N- The Wall,https://www.yelp.com/biz/chef-gregs-soul-n-the-wall-detroit?osq=food
2,No,,,Yes,,No,Casual,Casual,,No,,,Yes,,No,,,10:00 am - 3:30 am,,"Lunch,LateNight",,Yes,Yes,,,,No,10:00 am - 1:30 am,,Average,,No,PrivateLot,10:00 am - 3:30 am,,12:00 pm - 1:00 am,Yes,No,10:00 am - 1:30 am,10:00 am - 1:30 am,No,10:00 am - 1:30 am,,No,MI Detroit Bagley,Claimed,,lous-deli-detroit,42.417295,-83.1527537,Moderate,4.5,hygrade-deli-detroit,lous-deli-southfield,gonellas-foods-detroit,20,Delis,Lou’s Deli,https://www.yelp.com/biz/lous-deli-detroit?osq=food
3,,,,,,,,,,,,,,,,,,,,,,,,,,,,,,,,,,,,,,,,,,,,,MI Detroit Bagley,Unclaimed,,grandfathers-place-detroit,42.4173215,-83.1504884,,5.0,caribbean-citchen-detroit,lous-deli-detroit,toms-tavern-detroit,1,Restaurants,Grandfather’s Place,https://www.yelp.com/biz/grandfathers-place-detroit?osq=food
4,,,,Yes,,No,,Casual,,,,,No,,No,,,,,,,Yes,Yes,,,,No,,,Quiet,,No,,,,,Yes,No,,,No,,,No,MI Detroit Bagley,Unclaimed,,china-wok-detroit,42.4285463,-83.1412619,Inexpensive,4.5,china-ruby-ferndale,china-star-express-ferndale,golden-city-restaurant-madison-heights,5,Chinese,China Wok,https://www.yelp.com/biz/china-wok-detroit?osq=food
5,,,,Yes,,,,Casual,,,,,,,No,,,12:00 pm - 9:00 pm,,,,,,,,,,Closed,,,,,,12:00 pm - 9:00 pm,,12:00 pm - 9:00 pm,Yes,,12:00 pm - 9:00 pm,Closed,,12:00 pm - 9:00 pm,,,MI Detroit Bagley,Unclaimed,,babybacks-open-pit-detroit,42.4317672,-83.1440443,,4.0,parks-old-style-bar-b-q-detroit,vickis-barbecue-and-shrimp-detroit,nunns-barbeque-detroit,8,Barbeque,BabyBacks Open Pit,https://www.yelp.com/biz/babybacks-open-pit-detroit?osq=food
6,,,,,,,,,,,,,,,,,,1:00 pm - 10:00 pm,,,,,,,,,,Closed,,,,,,1:00 pm - 10:00 pm,,Closed,,,1:00 pm - 10:00 pm,1:00 pm - 10:00 pm,,1:00 pm - 10:00 pm,,,MI Detroit Bagley,Unclaimed,,mr-fofos-detroit,42.4328416585922,-83.1413930654526,,3.5,,,,3,Sandwiches,Mr FoFo’s,https://www.yelp.com/biz/mr-fofos-detroit?osq=food
7,,,,,,,,,,,,,,,,,,Closed,,,,,,,,,,Closed,,,,,,5:00 pm - 10:00 pm,,Closed,,,Closed,Closed,,Closed,,,MI Detroit Bagley,Claimed,,social-sushi-detroit-detroit,42.4285282046855,-83.1416156888008,,4.5,wasabi-korean-and-japanese-cuisine-detroit,o-sushi-japanese-restaurant-dearborn,midtown-shangri-la-detroit,2,SushiBars,Social Sushi Detroit,https://www.yelp.com/biz/social-sushi-detroit-detroit?osq=food
8,,,,Yes,,,,,,,,,,,,,,10:00 am - 10:00 pm,,,,,,,,,,10:00 am - 9:00 pm,,,,,,10:00 am - 10:00 pm,,11:00 am - 7:00 pm,,,10:00 am - 9:00 pm,10:00 am - 9:00 pm,,10:00 am - 9:00 pm,,,MI Detroit Bagley,Unclaimed,,blue-seas-fish-market-ferndale,42.4465228,-83.1431033,Highend,3.5,the-brewery-clinton-township,detroit-shrimp-and-fish-southfield,the-fish-market-dearborn,4,Seafood,Blue Seas Fish Market,https://www.yelp.com/biz/blue-seas-fish-market-ferndale?osq=food
9,,,,Yes,,,,,,,,,,,,,,,,,,Yes,Yes,,,,,,,,,,,,,,Yes,No,,,,,,,MI Detroit Bagley,Unclaimed,,8-mile-grill-coney-island-detroit,42.445535,-83.151414,,4.0,thomass-family-dining-livonia,l-georges-coney-island-detroit-3,little-brothers-burgers-royal-oak,3,American(Traditional),8 Mile Grill Coney Island,https://www.yelp.com/biz/8-mile-grill-coney-island-detroit?osq=food
10,,,,,,,,,,,,,,,,,,8:00 am - 10:00 pm,,,,,,,,,,8:00 am - 10:00 pm,,,,,,8:00 am - 10:00 pm,,8:00 am - 10:00 pm,,,8:00 am - 10:00 pm,8:00 am - 10:00 pm,,8:00 am - 10:00 pm,,,MI Detroit Bagley,Claimed,,rite-aid-detroit-10,42.432159,-83.160669,,,cvs-pharmacy-detroit-5,cvs-pharmacy-detroit-38,,,,Rite Aid,https://www.yelp.com/biz/rite-aid-detroit-10?osq=food
12,,,,,,,,,,,,,Yes,,,,,10:30 am - 11:00 pm,,,,,,,,,,10:30 am - 10:00 pm,,,,,,10:30 am - 11:00 pm,,11:00 am - 10:00 pm,,,10:30 am - 11:00 pm,10:30 am - 10:00 pm,,10:30 am - 10:00 pm,,Free,MI Detroit Bagley,Claimed,,kfc-detroit-17,42.4312,-83.1599,,,lees-famous-recipe-chicken-plymouth,white-castle-detroit-8,chicken-shack-royal-oak,,,KFC,https://www.yelp.com/biz/kfc-detroit-17?osq=food
13,,,,Yes,,,,,,,,,,,,,,9:00 am - 2:00 am,,,,,,,,,,9:00 am - 2:00 am,,,,,,9:00 am - 2:00 am,,9:00 am - 2:00 am,,,9:00 am - 2:00 am,9:00 am - 2:00 am,,9:00 am - 2:00 am,Yes,,MI Detroit Bagley,Unclaimed,,tradewinds-liquor-and-wine-shop-detroit,42.421073,-83.141321,Moderate,4.5,merchants-fine-wine-dearborn,forest-liquor-detroit,cost-plus-wine-detroit,3,"Beer,Wine&Spirits",Tradewinds Liquor & Wine Shop,https://www.yelp.com/biz/tradewinds-liquor-and-wine-shop-detroit?osq=food
14,,,,,,,,,,,,,,,,,,,,,,,,,,,,,,,,,,,,,,,,,,,,,MI Detroit Bagley,Unclaimed,,diamite-products-detroit,42.424472,-83.151053,,,zerbos-health-foods-supermarket-livonia,natural-food-patch-ferndale,sprout-house-and-macrobiotics-grosse-pointe-park,,,Diamite Products,https://www.yelp.com/biz/diamite-products-detroit?osq=food
15,,No,,Yes,,No,,Casual,,,,,,,Yes,,,,,,,No,,,,,No,,,Loud,,,,,,,Yes,No,,,No,,,,MI Detroit Bagley,Unclaimed,,papas-pizza-and-bbq-detroit,42.4315236,-83.1460683,Moderate,2.0,pizza-connection-hazel-park,amiccis-pizza-hamtramck,woodward-avenue-brewers-ferndale,5,"Pizza,Barbeque",Papa’s Pizza & Bbq,https://www.yelp.com/biz/papas-pizza-and-bbq-detroit?osq=food
16,,,,,,,,,,,,,,,,,,,,,,,,,,,,,,,,,,,,,,,,,,,,,MI Detroit Bagley,Unclaimed,,super-8-food-market-detroit,42.4457292,-83.1574074,,,,,,,,Super-8 Food Market,https://www.yelp.com/biz/super-8-food-market-detroit?osq=food
18,,,,Yes,,,,,,,,,,,,,,,,,,,,,,,,,,,,,,,,,,,,,,,,,MI Detroit Bagley,Unclaimed,,toms-liquor-palace-detroit,42.4414491,-83.141618,Pricey,3.0,majestic-market-southfield,state-fair-supermarket-ferndale,kens-market-ferndale,3,"Beer,Wine&Spirits",Tom’s Liquor Palace,https://www.yelp.com/biz/toms-liquor-palace-detroit?osq=food
19,,,,,,,,,,,,,,,,,,,,,,,,,,,,,,,,,,,,,,,,,,,,,MI Detroit Bagley,Unclaimed,,super-fair-market-detroit,42.4315706,-83.1426566,,,,,,,,Super Fair Market,https://www.yelp.com/biz/super-fair-market-detroit?osq=food
20,,,,,,,,,,,,,,,,,,,,,,,,,,,,,,,,,,,,,,,,,,,,,MI Detroit Bagley,Unclaimed,,als-party-store-detroit,42.4282953,-83.1415788,,,,,,,,Al’s Party Store,https://www.yelp.com/biz/als-party-store-detroit?osq=food
21,,,,,,,,,,,,,,,,,,,,,,,,,,,,,,,,,,,,,,,,,,,,,MI Detroit Bagley,Unclaimed,,goodeez-etc-detroit,42.4263956,-83.1608101,,,,,,,,Goodeez Etc,https://www.yelp.com/biz/goodeez-etc-detroit?osq=food
22,,,,,,,,,,,,,,,,,,,,,,,,,,,,,,,,,,,,,,,,,,,,,MI Detroit Bagley,Unclaimed,,nuwaubian-food-coop-detroit,42.4306482,-83.1418226,,,,,,,,Nuwaubian Food-Coop,https://www.yelp.com/biz/nuwaubian-food-coop-detroit?osq=food
23,,,,,,,,,,,,,,,,,,,,,,,,,,,,,,,,,,,,,,,,,,,,,MI Detroit Bagley,Unclaimed,,bottoms-up-party-store-detroit,42.4457505,-83.15629,,1.0,sav-on-birmingham-drugs-birmingham,trader-joes-royal-oak,holiday-market-royal-oak,1,"Beer,Wine&Spirits",Bottoms Up Party Store,https://www.yelp.com/biz/bottoms-up-party-store-detroit?osq=food
24,,,,Yes,,No,,Casual,,Yes,,,Yes,,Yes,No,,11:00 am - 11:00 pm,,Lunch,,Yes,Yes,,,,Yes,11:00 am - 10:00 pm,,,,No,Street,11:00 am - 11:00 pm,,12:00 pm - 10:00 pm,Yes,No,11:00 am - 10:00 pm,11:00 am - 10:00 pm,No,11:00 am - 10:00 pm,Yes,No,MI Detroit Bagley,Claimed,,jets-pizza-ferndale,42.4461715345972,-83.1570820424422,Moderate,2.5,louis-pizza-hazel-park,pizza-connection-hazel-park,stop-spot-lounge-ferndale,34,"Pizza,Salad",Jet’s Pizza,https://www.yelp.com/biz/jets-pizza-ferndale?osq=food
25,,,,Yes,,No,,Casual,,,,,Yes,,No,,,,,,,No,Yes,,,,No,,,Quiet,,No,,,,,Yes,No,,,No,,,,MI Detroit Bagley,Unclaimed,,subway-ferndale-3,42.44611,-83.1550473,Inexpensive,4.0,,,,1,"Sandwiches,FastFood",Subway,https://www.yelp.com/biz/subway-ferndale-3?osq=food
26,,,,,,,,,,,,,,,,,,,,,,,,,,,,,,,,,,,,,,,,,,,,,MI Detroit Bagley,Unclaimed,,marys-place-detroit,42.432445,-83.155769,,,,,,,,Mary’s Place,https://www.yelp.com/biz/marys-place-detroit?osq=food
27,,,,,,,,,,,,,,,,,,,,,,,,,,,,,,,,,,,,,,,,,,,,,MI Detroit Bagley,Unclaimed,,sheba-fish-and-seafood-company-detroit,42.4171218,-83.1435047,,,fresh-fish-house-detroit,,,,,Sheba Fish & Seafood Company,https://www.yelp.com/biz/sheba-fish-and-seafood-company-detroit?osq=food
28,,,,,,,,,,,,,,,,,,,,,,,,,,,,,,,,,,,,,,,,,,,,,MI Detroit Bagley,Unclaimed,,s-and-g-liquor-shop-detroit,42.4242526,-83.1607178,,,,,,,,S & G Liquor Shop,https://www.yelp.com/biz/s-and-g-liquor-shop-detroit?osq=food
29,,,,,,,,,,,,,,,,,,,,,,,,,,,,,,,,,,,,,,,,,,,,,MI Detroit Bagley,Unclaimed,,sheppards-sole-food-detroit,42.429919,-83.141676,,,lous-deli-detroit,toms-tavern-detroit,china-wok-detroit,,,Sheppard’s Sole Food,https://www.yelp.com/biz/sheppards-sole-food-detroit?osq=food
31,,,,Yes,,,,,,,,,,,,,,,,,,No,Yes,,,,,,,,,,,,,,Yes,No,,,,,,,MI Detroit Bagley,Unclaimed,,wendys-detroit-11,42.4460658,-83.1421784,,,the-emory-ferndale,checkers-detroit,qdoba-mexican-eats-southfield,,,Wendy’s,https://www.yelp.com/biz/wendys-detroit-11?osq=food
32,,,,,,,,,,,,,Yes,,,,,10:30 am - 10:00 pm,,,,,,,,,,10:30 am - 10:00 pm,,,,,,11:00 am - 10:00 pm,,11:00 am - 10:00 pm,,,10:30 am - 10:00 pm,10:30 am - 10:00 pm,,10:30 am - 10:00 pm,,No,MI Detroit Bagley,Claimed,,kfc-ferndale,42.446,-83.142,,,,,,,,KFC,https://www.yelp.com/biz/kfc-ferndale?osq=food
34,,,,,,,,,,,,,,,,,,,,,,,,,,,,,,,,,,,,,,,,,,,,,MI Detroit Bagley,Unclaimed,,santa-barbara-market-detroit,42.4173483,-83.1489468,,,,,,,,Santa Barbara Market,https://www.yelp.com/biz/santa-barbara-market-detroit?osq=food
35,,,,Yes,,,,Casual,,,,,,,No,,Yes,,,,,No,Yes,,,,,,,,,,,,,,Yes,No,,,,,,,MI Detroit Bagley,Unclaimed,,mcdonalds-detroit-9,42.4174774,-83.1412573,Inexpensive,2.5,brayz-hamburgers-hazel-park,white-castle-detroit-13,telway-hamburgers-detroit,3,"FastFood,Burgers",McDonald’s,https://www.yelp.com/biz/mcdonalds-detroit-9?osq=food
36,,,,,,,,,,,,,,,,,,,,,,,,,,,,,,,,,,,,,,,,,,,,,MI Detroit Bagley,Unclaimed,,good-stop-liquor-detroit,42.4171422,-83.1459815,,,,,,,,Good Stop Liquor,https://www.yelp.com/biz/good-stop-liquor-detroit?osq=food
37,,,,,,,,,,,,,,,,,,,,,,,,,,,,,,,,,,,,,,,,,,,,,MI Detroit Bagley,Unclaimed,,crown-liquor-detroit,42.4172592,-83.1434875,,,wine-captain-party-shoppe-dearborn,macs-drugs-and-liquor-shop-detroit,forest-liquor-detroit,,,Crown Liquor,https://www.yelp.com/biz/crown-liquor-detroit?osq=food
38,,,,,,,,,,,,,,,,,,,,,,,,,,,,,,,,,,,,,,,,,,,,,MI Detroit Bagley,Unclaimed,,wyoming-and-six-market-detroit,42.417409,-83.159884,,,,,,,,Wyoming & Six Market,https://www.yelp.com/biz/wyoming-and-six-market-detroit?osq=food
39,,,,,,,,,,,,,,,,,,,,,,,,,,,,,,,,,,,,,,,,,,,,,MI Detroit Bagley,Unclaimed,,jade-garden-detroit,42.4326723,-83.1411723,,,the-rock-on-third-royal-oak,the-royal-oak-brewery-royal-oak,malones-tavern-warren,,,Jade Garden,https://www.yelp.com/biz/jade-garden-detroit?osq=food
40,,,,No,,No,,Casual,,,,,,,No,,,11:00 am - 8:00 pm,,,,No,No,,,,,11:00 am - 8:00 pm,,,,Yes,,11:00 am - 8:00 pm,,11:00 am - 8:00 pm,Yes,No,11:00 am - 8:00 pm,11:00 am - 8:00 pm,No,11:00 am - 8:00 pm,Yes,,MI Detroit Bagley,Unclaimed,,motown-mobile-barbeque-and-grill-detroit,42.445644,-83.161508,,,beans-and-cornbread-southfield,howes-bayou-ferndale,slows-bar-bq-detroit,,,Motown Mobile Barbeque & Grill,https://www.yelp.com/biz/motown-mobile-barbeque-and-grill-detroit?osq=food
41,,,,,,,,,,,,,,,No,,,,,,,,,,,,,,,,,,,,,,,,,,,,,,MI Detroit Bagley,Unclaimed,,livernois-fresh-fish-and-seafood-detroit,42.4252190407428,-83.140943281499,,5.0,,,,1,Seafood,Livernois Fresh Fish And Seafood,https://www.yelp.com/biz/livernois-fresh-fish-and-seafood-detroit?osq=food
42,,,,No,,No,,,,No,,,No,,No,,,,,,,No,No,,,,No,,,Loud,,No,,,,,Yes,No,,,No,,,No,MI Detroit Bagley,Unclaimed,,little-caesars-pizza-detroit-17,42.4186139,-83.1405516,Inexpensive,1.0,stop-spot-lounge-ferndale,greggs-pizza-and-bar-b-que-detroit,primos-pizza-oak-park,3,Pizza,Little Caesar’s Pizza,https://www.yelp.com/biz/little-caesars-pizza-detroit-17?osq=food
43,,,,,,,,,,,,,,,,,,,,,,,,,,,,,,,,,,,,,,,,,,,,,MI Detroit Bagley,Unclaimed,,miley-and-miley-shrimp-sack-detroit,42.4182481,-83.1413158,,,greggs-pizza-and-bar-b-que-detroit,scotty-simpsons-fish-and-chips-detroit,kitchen-hanzo-west-bloomfield,,,Miley & Miley Shrimp Sack,https://www.yelp.com/biz/miley-and-miley-shrimp-sack-detroit?osq=food
44,,No,,Yes,,FullBar,,,,Yes,,,,No,,,,11:00 am - 2:00 am,,,No,Yes,,,Yes,No,Yes,11:00 am - 2:00 am,MusicVideos,Loud,,Yes,,11:00 am - 2:00 am,,11:00 am - 2:00 am,,No,11:00 am - 2:00 am,11:00 am - 2:00 am,,11:00 am - 2:00 am,,,MI Detroit Bricktown,Unclaimed,,briggs-detroit-detroit,42.3310203,-83.039469,Moderate,3.5,woodward-cocktail-bar-detroit,detroiter-bar-detroit,gigis-detroit-2,36,"SportsBars,BeerBar,GayBars",Briggs Detroit,https://www.yelp.com/biz/briggs-detroit-detroit?osq=food
45,,No,,Yes,,FullBar,Divey,Casual,"Thu,Fri,Sat",Yes,,,Yes,No,No,No,,11:00 am - 2:00 am,,Dinner,No,Yes,No,,Yes,No,Yes,11:00 am - 12:00 am,,Average,,No,"Street,PrivateLot",11:00 am - 2:00 am,No,Closed,Yes,Yes,11:00 am - 2:00 am,11:00 am - 12:00 am,Yes,11:00 am - 12:00 am,No,Free,MI Detroit Bricktown,Claimed,,jacobys-german-biergarten-detroit,42.3322901,-83.041867,Moderate,4.0,grand-trunk-pub-detroit-2,anchor-bar-detroit,the-old-shillelagh-detroit,217,"German,Pubs",Jacoby’s German Biergarten,https://www.yelp.com/biz/jacobys-german-biergarten-detroit?osq=food
46,,No,,Yes,,FullBar,Casual,Casual,"Tue,Wed,Sun",Yes,,,Yes,No,No,,,11:00 am - 2:00 am,,"Lunch,Dinner,LateNight",No,Yes,No,,Yes,No,Yes,11:00 am - 2:00 am,JukeBox,Average,,No,Street,11:00 am - 2:00 am,No,12:00 pm - 2:00 am,Yes,No,11:00 am - 2:00 am,11:00 am - 2:00 am,Yes,11:00 am - 2:00 am,No,No,MI Detroit Bricktown,Unclaimed,,sweetwater-tavern-detroit,42.3316661,-83.0417122,Moderate,3.5,grand-trunk-pub-detroit-2,jacobys-german-biergarten-detroit,joe-muer-seafood-detroit,333,"American(New),Bars,American(Traditional)",Sweetwater Tavern,https://www.yelp.com/biz/sweetwater-tavern-detroit?osq=food
47,,,,,,,,,,,,,,,,,,,,,,,,,,,,,,,,,,,,,,,,,,,,,MI Detroit Bricktown,Unclaimed,,food-plaza-detroit-2,42.3315166,-83.0420078,,5.0,food-plaza-detroit-2,university-village-market-detroit-2,rite-aid-detroit-5,1,ConvenienceStores,Food Plaza,https://www.yelp.com/biz/food-plaza-detroit-2?osq=food
48,,No,,Yes,,,,,,Yes,,,,,,,,7:00 am - 2:00 am,,,,,,,,,,7:00 am - 2:00 am,,,,,,7:00 am - 2:00 am,,7:00 am - 12:00 am,Yes,,7:00 am - 2:00 am,7:00 am - 2:00 am,,7:00 am - 2:00 am,,,MI Detroit Bricktown,Unclaimed,,city-market-detroit,42.3315748,-83.0418196,Moderate,4.5,forest-liquor-detroit,honey-bee-la-colmena-detroit,e-and-l-supermercado-detroit,8,"Beer,Wine&Spirits,Grocery,MeatShops",City Market,https://www.yelp.com/biz/city-market-detroit?osq=food
49,,,,Yes,,,,Casual,,No,,,,,No,,,11:00 am - 4:00 pm,,,,Yes,No,,,,Yes,11:00 am - 2:00 am,,,,Yes,,11:00 am - 4:00 pm,,11:00 am - 2:00 am,Yes,Yes,11:00 am - 2:00 am,11:00 am - 2:00 am,,11:00 am - 2:00 am,,,MI Detroit Bricktown,Unclaimed,,locos-tex-mex-grille-detroit,42.333758515946,-83.0420716063488,Moderate,2.5,mexicantown-detroit,los-galanes-detroit,mexican-town-restaurant-detroit,16,Tex-Mex,Loco’s Tex-Mex Grille,https://www.yelp.com/biz/locos-tex-mex-grille-detroit?osq=food
50,,No,,Yes,,FullBar,Casual,Casual,,Yes,,,Yes,,No,,,10:00 am - 4:00 am,,"Dinner,LateNight",,Yes,Yes,,,,Yes,10:00 am - 2:00 am,,Average,,Yes,Street,10:00 am - 4:00 am,,10:00 am - 2:00 am,Yes,No,10:00 am - 2:00 am,10:00 am - 2:00 am,Yes,10:00 am - 2:00 am,Yes,No,MI Detroit Bricktown,Claimed,,nikis-pizza-detroit,42.3337210606674,-83.04200186272,Moderate,3.5,pizzapapalis-detroit,plakas-detroit,golden-fleece-restaurant-detroit,144,"Pizza,Greek",Niki’s Pizza,https://www.yelp.com/biz/nikis-pizza-detroit?osq=food
51,,,,Yes,,FullBar,Divey,Casual,"Thu,Fri,Sat",Yes,,,,No,No,,,11:00 am - 2:00 am,,,No,Yes,No,,Yes,No,Yes,11:00 am - 2:00 am,Background,Average,,Yes,Street,11:00 am - 2:00 am,No,11:00 am - 2:00 am,Yes,No,11:00 am - 2:00 am,11:00 am - 2:00 am,,11:00 am - 2:00 am,No,,MI Detroit Bricktown,Claimed,,detroiter-bar-detroit,42.3330382,-83.0414814,Inexpensive,3.5,grand-trunk-pub-detroit-2,sweetwater-tavern-detroit,firebird-tavern-detroit,67,"DiveBars,SportsBars,American(New)",Detroiter Bar,https://www.yelp.com/biz/detroiter-bar-detroit?osq=food
52,,,,Yes,,,Divey,Casual,,No,,,Yes,,Yes,,,8:00 am - 4:00 pm,,,,Yes,Yes,,,,No,8:00 am - 4:00 pm,,Average,,No,,Closed,,Closed,Yes,No,8:00 am - 4:00 pm,8:00 am - 4:00 pm,,8:00 am - 4:00 pm,,No,MI Detroit Bricktown,Claimed,,nathans-deli-detroit,42.3317118,-83.0386326,Inexpensive,4.0,hygrade-deli-detroit,mikes-famous-ham-place-detroit,lous-deli-detroit,13,Delis,Nathan’s Deli,https://www.yelp.com/biz/nathans-deli-detroit?osq=food
53,,No,,Yes,,FullBar,,Casual,"Wed,Fri,Sat",Yes,,,Yes,Yes,No,,,4:00 pm - 2:00 am,,"Dinner,LateNight",Yes,Yes,No,,Yes,No,Yes,4:00 pm - 12:00 am,"DJ,Live",VeryLoud,,No,"Valet,Street",7:00 pm - 2:00 am,No,7:00 pm - 2:00 am,Yes,No,4:00 pm - 2:00 am,4:00 pm - 2:00 am,Yes,4:00 pm - 2:00 am,Yes,No,MI Detroit Bricktown,Unclaimed,,floods-bar-and-grille-detroit,42.3343127,-83.0404362,Moderate,3.5,bakers-keyboard-lounge-detroit,cliff-bells-detroit,centaur-bar-detroit,56,"American(Traditional),SoulFood,Bars",Floods Bar & Grille,https://www.yelp.com/biz/floods-bar-and-grille-detroit?osq=food
54,,,,Yes,,FullBar,Casual,Casual,,Yes,,,No,,No,,,,,"Lunch,Dinner",,Yes,Yes,,,,Yes,,,Average,,No,Street,,,,Yes,Yes,,,Yes,,Yes,,MI Detroit Bricktown,Unclaimed,,loco-bar-and-grill-detroit,42.3337315506242,-83.0419786930542,Moderate,2.5,los-galanes-detroit,taqueria-el-rey-detroit,xochimilco-restaurant-detroit,85,Mexican,Loco Bar & Grill,https://www.yelp.com/biz/loco-bar-and-grill-detroit?osq=food
55,,,,Yes,,,,,,No,,,,,,,,,,,,,,,,,,,,,,,,,,,,,,,,,,,MI Detroit Bricktown,Unclaimed,,speedway-detroit,42.332669,-83.0367009,Inexpensive,5.0,speedway-romulus-4,,,1,"Gas&ServiceStations,ConvenienceStores",Speedway,https://www.yelp.com/biz/speedway-detroit?osq=food
56,,,,Yes,,,,,,No,,,,,,,,11:30 am - 7:00 pm,,,,,,,,,,11:30 am - 5:30 pm,,,,,Street,Closed,,Closed,Yes,,11:30 am - 5:30 pm,11:30 am - 5:30 pm,,11:30 am - 5:30 pm,No,,MI Detroit Bricktown,Unclaimed,,good-people-popcorn-detroit,42.3327453,-83.0413455,Inexpensive,4.5,good-people-popcorn-detroit,big-top-popcorn-eastpointe,garrett-popcorn-shops-novi-2,21,PopcornShops,Good People Popcorn,https://www.yelp.com/biz/good-people-popcorn-detroit?osq=food
57,,No,,Yes,,FullBar,,Casual,,No,,,No,No,No,,,,,,No,Yes,No,,Yes,,No,,Background,Average,,No,,,No,,Yes,Yes,,,Yes,,,No,MI Detroit Bricktown,Unclaimed,,mo-better-blues-detroit-3,42.3319705,-83.0392901,Inexpensive,2.0,floods-bar-and-grille-detroit,berts-marketplace-detroit-2,raven-lounge-and-restaurant-detroit,5,"Jazz&Blues,SoulFood",Mo Better Blues,https://www.yelp.com/biz/mo-better-blues-detroit-3?osq=food
58,,,,No,,,,,,No,,,,,,,,,,,,,,,,,,,,,,,,,,,,,,,,,Yes,,MI Detroit Bricktown,Unclaimed,,tunnel-liquor-shoppe-detroit,42.3305356,-83.0416841,Moderate,3.5,happy-four-party-store-detroit,broadway-stop-and-shop-detroit,cost-plus-wine-detroit,4,"Beer,Wine&Spirits",Tunnel Liquor Shoppe,https://www.yelp.com/biz/tunnel-liquor-shoppe-detroit?osq=food
59,,No,,Yes,,No,Casual,Casual,,Yes,,,,,Yes,,,11:00 am - 9:00 pm,,Lunch,,Yes,Yes,,,,No,11:00 am - 9:00 pm,,Average,,No,,Closed,,Closed,Yes,No,11:00 am - 9:00 pm,11:00 am - 9:00 pm,Yes,11:00 am - 9:00 pm,Yes,No,MI Detroit Bricktown,Unclaimed,,rice-bowl-fresh-asian-kitchen-detroit,42.330485,-83.041757,Moderate,3.0,china-one-buffet-detroit,orchid-thai-restaurant-detroit,china-house-detroit-3,21,"Chinese,AsianFusion,Thai",Rice Bowl Fresh Asian Kitchen,https://www.yelp.com/biz/rice-bowl-fresh-asian-kitchen-detroit?osq=food
60,,No,,Yes,,,,,,Yes,,,,,,,,,,,,,,,,,,,,,,No,,,,,Yes,,,,,,,No,MI Detroit Bricktown,Unclaimed,,tim-hortons-detroit-2,42.3305356,-83.0416841,Inexpensive,2.0,starbucks-grosse-pointe,dunkin-donuts-detroit-2,coffee-beanery-detroit-3,12,Coffee&Tea,Tim Hortons,https://www.yelp.com/biz/tim-hortons-detroit-2?osq=food
61,No,No,,Yes,,Beer&WineOnly,Casual,Casual,,Yes,,,Yes,,No,,,11:00 am - 11:00 pm,,"Lunch,Dinner",,Yes,Yes,,,,Yes,11:00 am - 9:00 pm,,Average,,No,Street,11:00 am - 11:00 pm,,11:00 am - 9:00 pm,Yes,No,11:00 am - 9:00 pm,11:00 am - 9:00 pm,Yes,11:00 am - 9:00 pm,,No,MI Detroit Cass_Corridor,Claimed,,guss-world-famous-fried-chicken-detroit,42.347952,-83.067582,Moderate,4.0,,,,94,"ChickenShop,Southern",Gus’s World Famous Fried Chicken,https://www.yelp.com/biz/guss-world-famous-fried-chicken-detroit?osq=food
62,No,No,,Yes,,FullBar,"Hipster,Casual",Casual,,Yes,,,No,,No,,,11:30 am - 1:00 am,,"Lunch,Dinner",,Yes,Yes,,,,Yes,11:30 am - 11:00 pm,,Loud,,Yes,Street,11:30 am - 1:00 am,,11:30 am - 10:00 pm,Yes,No,11:30 am - 11:00 pm,11:30 am - 11:00 pm,No,11:30 am - 11:00 pm,,Free,MI Detroit Cass_Corridor,Claimed,,jolly-pumpkin-pizzeria-and-brewery-detroit,42.3512597416829,-83.0652487171967,Moderate,4.0,motor-city-brewing-works-detroit,honest-johns-bar-and-grill-detroit,supino-pizzeria-detroit,275,"Pizza,Breweries",Jolly Pumpkin Pizzeria and Brewery,https://www.yelp.com/biz/jolly-pumpkin-pizzeria-and-brewery-detroit?osq=food
63,,No,,Yes,,No,Casual,Casual,,Yes,,,Yes,,No,,,6:00 am - 6:00 pm,,"Breakfast,Lunch",,No,Yes,Yes,,,No,6:00 am - 6:00 pm,,Average,,Yes,Street,6:00 am - 6:00 pm,,8:00 am - 4:00 pm,Yes,No,6:00 am - 6:00 pm,6:00 am - 6:00 pm,No,6:00 am - 6:00 pm,Yes,Free,MI Detroit Cass_Corridor,Claimed,,avalon-international-breads-detroit,42.3504092643867,-83.0640757083893,Inexpensive,4.5,astoria-pastry-shop-detroit,detroit-institute-of-bagels-detroit-2,fourteen-east-detroit,244,"Bakeries,Sandwiches,Coffee&Tea",Avalon International Breads,https://www.yelp.com/biz/avalon-international-breads-detroit?osq=food
64,,No,,Yes,,Beer&WineOnly,Hipster,Casual,,Yes,,,No,,No,,,11:00 am - 1:00 am,,"Lunch,Dinner,LateNight",,Yes,No,,,,Yes,11:00 am - 12:00 am,,Average,,Yes,PrivateLot,11:00 am - 1:00 am,,12:00 pm - 12:00 am,Yes,No,11:00 am - 12:00 am,11:00 am - 12:00 am,Yes,11:00 am - 12:00 am,Yes,Free,MI Detroit Cass_Corridor,Unclaimed,,motor-city-brewing-works-detroit,42.3518690018433,-83.0660513028781,Moderate,4.0,pizzapapalis-detroit,atwater-brewery-detroit,detroit-beer-company-detroit,369,"Breweries,Pizza",Motor City Brewing Works,https://www.yelp.com/biz/motor-city-brewing-works-detroit?osq=food
65,,No,,Yes,,FullBar,Trendy,Casual,,Yes,,,Yes,,No,,,11:00 am - 11:30 pm,,"Lunch,Dinner",,Yes,No,,,,No,11:00 am - 11:00 pm,,Average,,No,Street,11:00 am - 11:30 pm,,Closed,No,No,11:00 am - 11:00 pm,11:00 am - 11:00 pm,Yes,11:00 am - 11:00 pm,Yes,No,MI Detroit Cass_Corridor,Claimed,,la-feria-detroit,42.350197,-83.062759,Moderate,4.0,motor-city-brewing-works-detroit,honest-johns-bar-and-grill-detroit,vicentes-cuban-cuisine-detroit,224,"TapasBars,Spanish",La Feria,https://www.yelp.com/biz/la-feria-detroit?osq=food
66,No,No,,Yes,,FullBar,Hipster,Casual,,Yes,,,Yes,,Yes,Yes,,11:00 am - 1:00 am,,Lunch,,No,Yes,,,,No,11:00 am - 11:00 pm,,Average,,No,PrivateLot,11:00 am - 1:00 am,,12:00 pm - 10:00 pm,Yes,No,11:00 am - 1:00 am,11:00 am - 11:00 pm,No,11:00 am - 11:00 pm,Yes,Free,MI Detroit Cass_Corridor,Claimed,,alley-taco-detroit,42.3525324,-83.0673167,Inexpensive,3.5,taqueria-lupitas-detroit,taqueria-el-rey-detroit,marcus-market-detroit,75,Mexican,Alley Taco,https://www.yelp.com/biz/alley-taco-detroit?osq=food
67,,No,,Yes,,FullBar,"Divey,Hipster",Casual,"Thu,Fri,Sat",Yes,,,No,No,No,,No,11:30 am - 2:00 am,,LateNight,No,Yes,No,,Yes,Yes,No,11:30 am - 2:00 am,JukeBox,Loud,,Yes,Street,12:00 pm - 2:00 am,Yes,12:00 pm - 2:00 am,Yes,No,11:30 am - 2:00 am,11:30 am - 2:00 am,No,11:30 am - 2:00 am,Yes,No,MI Detroit Cass_Corridor,Unclaimed,,the-bronx-bar-detroit,42.3522275,-83.0668787,Inexpensive,4.0,abicks-bar-detroit,temple-bar-detroit,honest-johns-bar-and-grill-detroit,209,"DiveBars,Burgers",The Bronx Bar,https://www.yelp.com/biz/the-bronx-bar-detroit?osq=food
68,,No,No,Yes,,FullBar,"Hipster,Trendy",Casual,Mon,Yes,,,Yes,No,No,No,,5:00 pm - 12:00 am,,Dinner,No,Yes,No,,Yes,No,No,Closed,,Average,,No,Street,4:00 pm - 12:00 am,No,4:00 pm - 11:00 pm,Yes,No,5:00 pm - 11:00 pm,5:00 pm - 11:00 pm,Yes,5:00 pm - 11:00 pm,Yes,Free,MI Detroit Cass_Corridor,Claimed,,the-peterboro-detroit-2,42.3442232,-83.0603564,Moderate,3.5,selden-standard-detroit,katoi-detroit-3,chartreuse-detroit,108,"Chinese,CocktailBars",The Peterboro,https://www.yelp.com/biz/the-peterboro-detroit-2?osq=food
69,,,,Yes,,No,Casual,Casual,,Yes,,,Yes,,No,,,10:00 am - 9:00 pm,,Lunch,,Yes,Yes,,,,No,10:00 am - 9:00 pm,,Quiet,,No,Street,10:00 am - 9:00 pm,,9:00 am - 5:00 pm,Yes,No,10:00 am - 9:00 pm,10:00 am - 9:00 pm,Yes,10:00 am - 9:00 pm,Yes,Free,MI Detroit Cass_Corridor,Unclaimed,,harmonie-garden-cafe-detroit,42.3525788,-83.0697241,Inexpensive,4.0,hamido-dearborn,shatila-bakery-dearborn,al-ameer-dearborn,61,MiddleEastern,Harmonie Garden Cafe,https://www.yelp.com/biz/harmonie-garden-cafe-detroit?osq=food
70,,No,,Yes,,FullBar,Casual,Casual,,Yes,,,Yes,,No,,,11:00 am - 12:00 am,,Dinner,,Yes,Yes,,,,Yes,11:00 am - 10:30 pm,,Average,,Yes,PrivateLot,11:00 am - 12:00 am,,11:00 am - 9:00 pm,Yes,Yes,11:00 am - 10:30 pm,11:00 am - 10:30 pm,Yes,11:00 am - 10:30 pm,Yes,Free,MI Detroit Cass_Corridor,Claimed,,traffic-jam-and-snug-detroit-3,42.350958,-83.066086,Moderate,3.0,union-street-detroit,avalon-international-breads-detroit,green-dot-stables-detroit-2,364,"American(Traditional),American(New),Bakeries",Traffic Jam & Snug,https://www.yelp.com/biz/traffic-jam-and-snug-detroit-3?osq=food
71,Yes,No,,Yes,,,,,,Yes,,,,,,,,11:00 am - 9:00 pm,,,No,Yes,,,No,,No,11:00 am - 8:00 pm,,,,No,,11:00 am - 9:00 pm,,9:00 am - 8:00 pm,Yes,No,11:00 am - 9:00 pm,11:00 am - 8:00 pm,,11:00 am - 8:00 pm,,,MI Detroit Cass_Corridor,Claimed,,8%C2%BA-plato-detroit-detroit-2,42.3444195,-83.0604993,Moderate,4.5,motor-city-brewing-works-detroit,mudgies-deli-detroit,marcus-market-detroit,15,"Beer,Wine&Spirits,BeerBar",8º Plato - Detroit,https://www.yelp.com/biz/8%C2%BA-plato-detroit-detroit-2?osq=food
72,,,,Yes,,FullBar,"Hipster,Casual",Casual,"Thu,Fri,Sat",Yes,,,No,No,No,,,11:00 am - 1:00 am,,"Lunch,Dinner",No,Yes,No,,No,No,No,11:00 am - 1:00 am,Live,Average,,No,Street,11:00 am - 1:00 am,Yes,5:00 pm - 12:00 am,Yes,No,11:00 am - 1:00 am,11:00 am - 1:00 am,Yes,11:00 am - 1:00 am,Yes,Free,MI Detroit Cass_Corridor,Unclaimed,,cass-cafe-detroit,42.3534986,-83.0648729,Moderate,3.5,honest-johns-bar-and-grill-detroit,pjs-lager-house-detroit,the-bronx-bar-detroit,209,"Vegetarian,Sandwiches,Bars",Cass Cafe,https://www.yelp.com/biz/cass-cafe-detroit?osq=food
73,No,No,,Yes,,FullBar,Casual,Casual,,Yes,,,No,,No,,,11:00 am - 12:00 am,,"Lunch,Dinner",,Yes,Yes,,,,Yes,11:00 am - 10:00 pm,,Average,,Yes,Street,11:00 am - 12:00 am,,Closed,Yes,Yes,11:00 am - 10:00 pm,11:00 am - 10:00 pm,Yes,11:00 am - 10:00 pm,No,Free,MI Detroit Cass_Corridor,Claimed,,midtown-shangri-la-detroit,42.3541155,-83.0652591,Moderate,3.5,golden-harvest-warren,noble-fish-clawson,shangri-la-authentic-chinese-cuisine-west-bloomfield,185,"DimSum,SushiBars",Midtown Shangri-La,https://www.yelp.com/biz/midtown-shangri-la-detroit?osq=food
74,,Yes,,Yes,,,,,,Yes,,,No,,,,,,,,,,,,,,,,,,,,Street,,,,Yes,,,,,,,Free,MI Detroit Cass_Corridor,Unclaimed,,treat-dreams-detroit,42.3504197,-83.0632317,Inexpensive,4.0,astoria-pastry-shop-detroit,the-potato-place-detroit,never%C3%ADa-la-michoacana-detroit-2,43,"Desserts,IceCream&FrozenYogurt",Treat Dreams,https://www.yelp.com/biz/treat-dreams-detroit?osq=food
75,,,No,Yes,,No,,Casual,,No,,,Yes,,Yes,No,,9:00 am - 6:00 pm,,,,Yes,Yes,,,,No,9:00 am - 6:00 pm,,,,No,Street,9:00 am - 6:00 pm,,9:00 am - 6:00 pm,No,No,9:00 am - 6:00 pm,9:00 am - 6:00 pm,No,9:00 am - 6:00 pm,No,No,MI Detroit Cass_Corridor,Claimed,,fresh-corner-caf%C3%A9-detroit,42.3449425882854,-83.0613297682617,Inexpensive,5.0,green-dot-stables-detroit-2,batch-brewing-company-detroit,alley-taco-detroit,2,Cafes,Fresh Corner Café,https://www.yelp.com/biz/fresh-corner-caf%C3%A9-detroit?osq=food
76,,,,Yes,,,,,,,,,,,,,,6:00 pm - 2:00 am,,,Yes,No,,,,,Yes,6:00 pm - 12:00 am,,,,,,Closed,,Closed,,,Closed,6:00 pm - 12:00 am,,6:00 pm - 12:00 am,No,,MI Detroit Cass_Corridor,Claimed,,jolly-old-timers-detroit,42.3527621,-83.068383,Moderate,5.0,zs-villa-detroit,majestic-theatre-detroit,the-ghost-bar-detroit,2,Nightlife,Jolly Old Timers,https://www.yelp.com/biz/jolly-old-timers-detroit?osq=food
77,,No,,Yes,,FullBar,,Casual,,No,,,Yes,,No,,,11:30 am - 12:00 am,,Dinner,,Yes,No,,,,Yes,11:30 am - 10:00 pm,,Average,Yes,No,Valet,12:00 pm - 12:00 am,,12:00 pm - 10:00 pm,Yes,Yes,11:30 am - 10:00 pm,11:30 am - 10:00 pm,Yes,11:30 am - 10:00 pm,Yes,Free,MI Detroit Cass_Corridor,Claimed,,marios-restaurant-detroit,42.35033,-83.065618,Pricey,2.5,moros-dining-allen-park,giovannis-ristorante-detroit,roma-cafe-detroit-3,178,Italian,Mario’s Restaurant,https://www.yelp.com/biz/marios-restaurant-detroit?osq=food
78,,,,No,,,,,,,,,,,,,,9:00 am - 5:00 pm,,,,,,,,,,9:00 am - 5:00 pm,,,,,,9:00 am - 5:00 pm,,Closed,No,,9:00 am - 5:00 pm,9:00 am - 5:00 pm,,9:00 am - 5:00 pm,,,MI Detroit Cass_Corridor,Claimed,,gharios-and-associates-detroit-2,42.348599,-83.0638929,,,shatila-bakery-dearborn,astoria-pastry-shop-detroit,rays-ice-cream-company-royal-oak,,,Gharios and Associates,https://www.yelp.com/biz/gharios-and-associates-detroit-2?osq=food
79,No,Yes,,Yes,,,,,,Yes,,,,,No,,,9:00 am - 9:00 pm,,,,,,Yes,,,,9:00 am - 11:30 pm,,,,Yes,Street,9:00 am - 9:00 pm,,9:00 am - 9:00 pm,Yes,,9:00 am - 11:30 pm,9:00 am - 11:30 pm,,9:00 am - 11:30 pm,No,Free,MI Detroit Cass_Corridor,Claimed,,the-bottom-line-coffee-house-detroit,42.3515407,-83.0689979,Inexpensive,4.0,avalon-international-breads-detroit,fourteen-east-detroit,astro-coffee-detroit,45,"Coffee&Tea,Bakeries",The Bottom Line Coffee House,https://www.yelp.com/biz/the-bottom-line-coffee-house-detroit?osq=food
80,,No,,Yes,,FullBar,,Casual,,Yes,,,No,No,No,,,11:00 am - 2:00 am,,Lunch,No,Yes,No,,Yes,Yes,Yes,11:00 am - 2:00 am,JukeBox,Average,,Yes,PrivateLot,11:00 am - 2:00 am,No,11:00 am - 2:00 am,Yes,No,11:00 am - 2:00 am,11:00 am - 2:00 am,Yes,11:00 am - 2:00 am,,Free,MI Detroit Cass_Corridor,Unclaimed,,harrys-detroit-detroit,42.339326,-83.056182,Moderate,3.5,nemos-bar-detroit,tommys-detroit-bar-and-grill-detroit,mcshanes-irish-pub-and-whiskey-bar-detroit,48,"SportsBars,American(Traditional)",Harry’s Detroit,https://www.yelp.com/biz/harrys-detroit-detroit?osq=food
82,,,,,,FullBar,,,,,,,,,,,,,,,,,,,,,Yes,,,,,,,,,,Yes,,,,,,,,MI Detroit Cass_Corridor,Unclaimed,,the-cooks-crossing-detroit,42.35217,-83.069359,,,iridescence-detroit,green-dot-stables-detroit-2,mac-shack-madison-heights,,,The Cook’s Crossing,https://www.yelp.com/biz/the-cooks-crossing-detroit?osq=food
83,,,,Yes,,,,Casual,,,,,Yes,,Yes,,,,,,,No,Yes,,,,,,,Average,,,,,,,Yes,No,,,No,,,,MI Detroit Cass_Corridor,Claimed,,passport-pizza-detroit,42.3519099,-83.0674493,Inexpensive,5.0,sicilys-pizzeria-and-subs-detroit,pizzapapalis-detroit,nikis-pizza-detroit,1,"Pizza,Italian",Passport Pizza,https://www.yelp.com/biz/passport-pizza-detroit?osq=food
84,,,,,,,,,,,,,,,,,,9:00 am - 7:00 pm,,,,,No,,,,,9:00 am - 7:00 pm,,,,,,9:00 am - 7:00 pm,,10:00 am - 5:00 pm,Yes,,9:00 am - 7:00 pm,9:00 am - 7:00 pm,,9:00 am - 7:00 pm,,,MI Detroit Cass_Corridor,Claimed,,shinola-cafe-detroit,42.351016,-83.0651572,,,,,,,,Shinola Cafe,https://www.yelp.com/biz/shinola-cafe-detroit?osq=food
85,No,No,,Yes,,FullBar,Divey,,"Tue,Fri,Sat",Yes,,,,No,,,,5:00 pm - 2:00 am,,,No,Yes,,,Yes,No,Yes,5:00 pm - 2:00 am,,Loud,,Yes,PrivateLot,5:00 pm - 2:00 am,OutdoorArea/PatioOnly,5:00 pm - 2:00 am,,No,5:00 pm - 2:00 am,5:00 pm - 2:00 am,,5:00 pm - 2:00 am,,,MI Detroit Cass_Corridor,Unclaimed,,third-street-bar-detroit,42.3521937,-83.0695075,Inexpensive,3.5,temple-bar-detroit,honest-johns-bar-and-grill-detroit,circa-1890-saloon-detroit-2,70,Bars,Third Street Bar,https://www.yelp.com/biz/third-street-bar-detroit?osq=food
86,,,,Yes,,,,,,Yes,,,No,,,,,9:00 am - 2:00 am,,,,,,,,,,9:00 am - 1:00 am,,,,,PrivateLot,9:00 am - 2:00 am,,10:30 am - 1:00 am,Yes,,9:00 am - 2:00 am,9:00 am - 1:00 am,,9:00 am - 1:00 am,Yes,,MI Detroit Cass_Corridor,Claimed,,marcus-market-detroit,42.3526702,-83.0668995,Inexpensive,4.0,forest-liquor-detroit,honey-bee-la-colmena-detroit,stadium-liquor-detroit,23,"Beer,Wine&Spirits,Grocery",Marcus Market,https://www.yelp.com/biz/marcus-market-detroit?osq=food
87,,,,Yes,,,,,,Yes,,,,,,,,6:00 am - 8:00 pm,,,,,,No,,,,6:00 am - 8:00 pm,,,,No,Street,6:00 am - 8:00 pm,,6:00 am - 6:00 pm,,,6:00 am - 8:00 pm,6:00 am - 8:00 pm,,6:00 am - 8:00 pm,,Free,MI Detroit Cass_Corridor,Unclaimed,,tim-hortons-detroit-4,42.3555936,-83.0660168,Inexpensive,2.5,avalon-international-breads-detroit,dutch-girl-donuts-detroit,starbucks-detroit-14,15,"Donuts,Coffee&Tea,Bagels",Tim Hortons,https://www.yelp.com/biz/tim-hortons-detroit-4?osq=food
88,,,,,,,,,,,,,,,,,,,,,,,,,,,,,,,,,,,,,,,,,,,,,MI Detroit Cass_Corridor,Unclaimed,,little-asia-inc-detroit,42.3535407,-83.0707867,,,,,,,,Little Asia Inc,https://www.yelp.com/biz/little-asia-inc-detroit?osq=food
90,,,,Yes,,,,,,Yes,,,Yes,,,,,,,,,,,,,,,,,,Yes,,"Street,PrivateLot",,,,Yes,,,,,,Yes,Free,MI Detroit Cass_Corridor,Claimed,,juice-joint-detroit-detroit-2,42.3526702,-83.0668995,,,,,,,,Juice Joint Detroit,https://www.yelp.com/biz/juice-joint-detroit-detroit-2?osq=food
91,,,,Yes,,,,,,No,,,,,,,,12:00 pm - 2:00 am,,,,,,,,,,12:00 pm - 2:00 am,,,,,Street,12:00 pm - 2:00 am,,12:00 pm - 2:00 am,No,,12:00 pm - 2:00 am,12:00 pm - 2:00 am,,12:00 pm - 2:00 am,,,MI Detroit Cass_Corridor,Claimed,,stadium-liquor-detroit,42.3387931,-83.0565257,Inexpensive,3.0,forest-liquor-detroit,happy-four-party-store-detroit,cost-plus-wine-detroit,3,"Beer,Wine&Spirits",Stadium Liquor,https://www.yelp.com/biz/stadium-liquor-detroit?osq=food
92,,,,,,,,,,,,,,,,,,,,,,,,,,,,,,,,,,,,,,,,,,,,,MI Detroit Cass_Corridor,Unclaimed,,grocer-farm-detroit,42.343867,-83.062676,,3.0,whole-foods-market-troy,,,2,"Beer,Wine&Spirits",Grocer Farm,https://www.yelp.com/biz/grocer-farm-detroit?osq=food
93,,,,,,,,,,,,,,,,,,,,,,,,,,,,,,,,,,,,,,,,,,,,,MI Detroit Cass_Corridor,Unclaimed,,friar-tucks-restaurant-detroit,42.3551811,-83.0688473,,,grand-trunk-pub-detroit-2,,,,,Friar Tucks Restaurant,https://www.yelp.com/biz/friar-tucks-restaurant-detroit?osq=food
94,,,,,,,,,,,,,,,,,,,,,,,,,,,,,,,,,,,,,,,,,,,,,MI Detroit Cass_Corridor,Claimed,,devonshire-cozy-corner-shoppe-detroit,42.341192,-83.061703,,,,,,,,Devonshire Cozy Corner Shoppe,https://www.yelp.com/biz/devonshire-cozy-corner-shoppe-detroit?osq=food
96,,,,,,,,,,,,,,,,,,,,,,,,,,,,,,,,,,,,,,,,,,,,,MI Detroit Cass_Corridor,Unclaimed,,publix-market-detroit,42.342599,-83.064532,,,forest-liquor-detroit,vernor-express-liquor-store-detroit,happy-four-party-store-detroit,,,Publix Market,https://www.yelp.com/biz/publix-market-detroit?osq=food
97,,,,,,,,,,,,,,,,,,,,,,,,,,,,,,,,,,,,,,,,,,,,,MI Detroit Cass_Corridor,Unclaimed,,pauls-place-detroit,42.3393183,-83.0569332,,,westborn-market-dearborn,honey-bee-la-colmena-detroit,alcamos-market-dearborn,,,Paul’s Place,https://www.yelp.com/biz/pauls-place-detroit?osq=food
98,,,,,,,,,,,,,,,,,,6:00 am - 5:30 am,,,,,,,,,,6:00 am - 5:30 am,,,,,,6:00 am - 5:30 am,,6:00 am - 5:30 am,,,6:00 am - 5:30 am,6:00 am - 5:30 am,,6:00 am - 5:30 am,,,MI Detroit Cass_Corridor,,,kinetic-java-organo-gold-independent-distributor-detroit,42.3504004062443,-83.0629911364964,,,starbucks-detroit-14,the-bottom-line-coffee-house-detroit,roasting-plant-detroit,,,Kinetic Java - Organo Gold Independent Distributor,https://www.yelp.com/biz/kinetic-java-organo-gold-independent-distributor-detroit?osq=food
99,,,,,,,,,,,,,,,No,,,,,,,Yes,Yes,,,,,,,,,,,,,,Yes,No,,,,,,,MI Detroit Chandler_Park,Unclaimed,,olympia-coney-island-detroit-5,42.4042349,-82.9648632,,5.0,marges-bar-grosse-pointe,national-coney-island-grosse-pointe,china-chef-grosse-pointe,1,Restaurants,Olympia Coney Island,https://www.yelp.com/biz/olympia-coney-island-detroit-5?osq=food
100,,,,,,,,,,,,,,,,,,,,,,,,,,,,,,,,,,,,,,,,,,,,,MI Detroit Chandler_Park,Unclaimed,,in-and-out-food-stores-inc-no-36-detroit,42.3955978,-82.9594228,,,,,,,,In & Out Food Stores Inc No 36,https://www.yelp.com/biz/in-and-out-food-stores-inc-no-36-detroit?osq=food
101,,,,,,,,,,,,,,,,,,,,,,,,,,,,,,,,,,,,,,,,,,,,,MI Detroit Chandler_Park,Unclaimed,,warren-liquor-detroit,42.3940371,-82.9627732,,,,,,,,Warren Liquor,https://www.yelp.com/biz/warren-liquor-detroit?osq=food
102,,,,,,,,,,,,,,,,,,,,,,,,,,,,,,,,,,,,,,,,,,,,,MI Detroit Chandler_Park,Unclaimed,,a-a-a-party-store-detroit,42.392952,-82.966556,,,,,,,,A A A Party Store,https://www.yelp.com/biz/a-a-a-party-store-detroit?osq=food
103,No,No,No,Yes,,Beer&WineOnly,Casual,Casual,"Thu,Fri,Sat",No,,,No,No,No,No,,11:00 am - 12:00 am,,Dinner,No,Yes,No,,No,No,Yes,11:00 am - 10:00 pm,,Average,,Yes,"Street,PrivateLot",11:00 am - 12:00 am,No,11:00 am - 10:00 pm,No,No,11:00 am - 10:00 pm,11:00 am - 10:00 pm,No,11:00 am - 10:00 pm,Yes,Free,MI Detroit Corktown,Claimed,,batch-brewing-company-detroit,42.3283429981483,-83.0632939479199,Moderate,4.5,motor-city-brewing-works-detroit,mudgies-deli-detroit,green-dot-stables-detroit-2,220,"Breweries,Bars,American(New)",Batch Brewing Company,https://www.yelp.com/biz/batch-brewing-company-detroit?osq=food
104,,No,,Yes,,FullBar,,Casual,,Yes,,,,No,No,,,11:00 am - 2:00 am,,Brunch,Yes,Yes,No,,Yes,No,Yes,11:00 am - 2:00 am,,Loud,,Yes,,11:00 am - 2:00 am,OutdoorArea/PatioOnly,11:00 am - 2:00 am,Yes,No,11:00 am - 2:00 am,11:00 am - 2:00 am,No,11:00 am - 2:00 am,,,MI Detroit Corktown,Unclaimed,,ufo-factory-detroit-2,42.3321795,-83.0670046,Inexpensive,4.0,al-ameer-dearborn,max-m-fisher-music-center-detroit,the-whitney-detroit,41,"MusicVenues,Bars,American(Traditional)",UFO Factory,https://www.yelp.com/biz/ufo-factory-detroit-2?osq=food
105,Yes,No,,Yes,,FullBar,"Hipster,Casual",Casual,,Yes,,,Yes,,No,,,11:00 am - 12:00 am,,"Lunch,Dinner",,Yes,Yes,,,,Yes,11:00 am - 10:00 pm,,Average,,No,Street,10:00 am - 12:00 am,,10:00 am - 10:00 pm,Yes,No,11:00 am - 10:00 pm,11:00 am - 10:00 pm,Yes,11:00 am - 10:00 pm,Yes,Free,MI Detroit Corktown,Claimed,,bobcat-bonnies-detroit,42.3316741,-83.0708487,Moderate,4.0,mudgies-deli-detroit,batch-brewing-company-detroit,brooklyn-street-local-detroit,257,Gastropubs,Bobcat Bonnie’s,https://www.yelp.com/biz/bobcat-bonnies-detroit?osq=food
106,,,,Yes,,FullBar,Casual,Casual,,Yes,,,Yes,,No,,,11:00 am - 11:00 pm,,Dinner,,Yes,No,,,,Yes,11:00 am - 10:00 pm,,Average,,Yes,Street,11:00 am - 11:00 pm,,11:00 am - 9:00 pm,Yes,Yes,11:00 am - 10:00 pm,11:00 am - 10:00 pm,Yes,11:00 am - 10:00 pm,,Free,MI Detroit Corktown,Claimed,,ottava-via-detroit,42.331716,-83.065696,Moderate,4.0,giovannis-ristorante-detroit,el-barzon-detroit,selden-standard-detroit,352,"Pizza,Italian,Sandwiches",Ottava Via,https://www.yelp.com/biz/ottava-via-detroit?osq=food
107,,,,Yes,,No,Casual,Casual,,Yes,,,Yes,,No,,,8:00 am - 3:00 pm,,"Breakfast,Brunch",,No,Yes,,,,No,Closed,,Average,,Yes,"Street,PrivateLot",9:00 am - 3:00 pm,,9:00 am - 3:00 pm,Yes,Yes,8:00 am - 3:00 pm,8:00 am - 3:00 pm,Yes,8:00 am - 3:00 pm,Yes,Free,MI Detroit Corktown,Claimed,,brooklyn-street-local-detroit,42.3317167,-83.0635726,Moderate,4.0,greenroom-salads-detroit,pjs-lager-house-detroit,the-fly-trap-ferndale,172,"Diners,Vegetarian,Vegan",Brooklyn Street Local,https://www.yelp.com/biz/brooklyn-street-local-detroit?osq=food
108,,No,,Yes,,No,Casual,Casual,,Yes,,,No,,No,,,10:00 am - 4:00 pm,,"Brunch,Lunch",,No,Yes,Yes,,,No,10:00 am - 4:00 pm,,Average,,Yes,Street,10:00 am - 4:00 pm,,9:00 am - 3:00 pm,Yes,No,10:00 am - 4:00 pm,10:00 am - 4:00 pm,Yes,10:00 am - 4:00 pm,Yes,Free,MI Detroit Corktown,Claimed,,le-petit-zinc-detroit,42.325924,-83.063008,Moderate,4.0,avalon-international-breads-detroit,detroit-institute-of-bagels-detroit-2,astro-coffee-detroit,221,"French,Coffee&Tea",Le Petit Zinc,https://www.yelp.com/biz/le-petit-zinc-detroit?osq=food
109,,,,Yes,,FullBar,Divey,Casual,"Mon,Fri,Sat",Yes,,,No,No,No,,,11:00 am - 2:00 am,,"Dinner,LateNight",Yes,Yes,No,,Yes,Yes,Yes,4:00 pm - 2:00 am,Live,Loud,,Yes,"Street,PrivateLot",10:30 am - 2:00 am,OutdoorArea/PatioOnly,10:30 am - 2:00 am,Yes,No,11:00 am - 2:00 am,4:00 pm - 2:00 am,No,4:00 pm - 2:00 am,Yes,Free,MI Detroit Corktown,Claimed,,pjs-lager-house-detroit,42.3317333,-83.0632757,Inexpensive,4.0,abicks-bar-detroit,om-cafe-ferndale,cass-cafe-detroit,93,"DiveBars,MusicVenues,Vegetarian",PJ’s Lager House,https://www.yelp.com/biz/pjs-lager-house-detroit?osq=food
110,No,No,,Yes,,No,Casual,Casual,,Yes,,,Yes,,No,,,7:00 am - 9:00 pm,,"Breakfast,Lunch,Dinner",,Yes,Yes,,,,No,7:00 am - 9:00 pm,,Average,,No,PrivateLot,7:00 am - 9:00 pm,,8:00 am - 3:00 pm,Yes,No,7:00 am - 9:00 pm,7:00 am - 9:00 pm,Yes,7:00 am - 9:00 pm,Yes,No,MI Detroit Corktown,Claimed,,onassis-coney-island-detroit,42.3310918,-83.0673399,Inexpensive,4.5,new-center-eatery-detroit,honest-johns-bar-and-grill-detroit,zefs-midtown-detroit,30,"American(New),Breakfast&Brunch",Onassis Coney Island,https://www.yelp.com/biz/onassis-coney-island-detroit?osq=food
111,,,,,,,,,,,,,No,,No,,,,,,,,,,,,,,,,,,,,,,,,,,,,,,MI Detroit Corktown,Unclaimed,,burger-king-detroit-20,42.3258086169939,-83.0619621276855,,4.0,marcus-hamburgers-hamtramck,white-castle-detroit-8,honest-johns-bar-and-grill-detroit,2,Burgers,Burger King,https://www.yelp.com/biz/burger-king-detroit-20?osq=food
112,,Yes,,Yes,,,,,,Yes,,,,,No,,,7:00 am - 3:00 pm,,,,,,Yes,,,,7:00 am - 3:00 pm,,,,Yes,"Street,PrivateLot",8:00 am - 3:00 pm,,8:00 am - 3:00 pm,Yes,,7:00 am - 3:00 pm,7:00 am - 3:00 pm,,7:00 am - 3:00 pm,,Free,MI Detroit Corktown,Claimed,,detroit-institute-of-bagels-detroit-2,42.331771,-83.062899,Inexpensive,4.5,avalon-international-breads-detroit,le-petit-zinc-detroit,astro-coffee-detroit,148,"Bagels,Bakeries,Coffee&Tea",Detroit Institute of Bagels,https://www.yelp.com/biz/detroit-institute-of-bagels-detroit-2?osq=food
113,,,,Yes,,FullBar,Casual,Casual,"Mon,Wed,Fri",Yes,,,No,No,No,,,11:00 am - 12:00 am,,Lunch,No,Yes,No,,Yes,No,Yes,11:00 am - 12:00 am,Background,Average,,Yes,PrivateLot,11:00 am - 12:00 am,OutdoorArea/PatioOnly,11:00 am - 12:00 am,Yes,No,11:00 am - 12:00 am,11:00 am - 12:00 am,Yes,11:00 am - 12:00 am,Yes,No,MI Detroit Corktown,Unclaimed,,nemos-bar-detroit,42.3314417,-83.0649046,Inexpensive,3.5,detroiter-bar-detroit,cobo-joes-bar-detroit-3,tommys-detroit-bar-and-grill-detroit,66,"American(Traditional),SportsBars",Nemo’s Bar,https://www.yelp.com/biz/nemos-bar-detroit?osq=food
114,,No,No,Yes,,FullBar,Casual,Casual,"Fri,Sat",Yes,,,Yes,No,No,Yes,,11:00 am - 2:00 am,,"Lunch,Dinner,LateNight",No,Yes,No,,Yes,Yes,Yes,11:00 am - 2:00 am,,Average,,Yes,"Street,PrivateLot",11:00 am - 2:00 am,OutdoorArea/PatioOnly,12:00 pm - 12:00 am,Yes,Yes,11:00 am - 2:00 am,11:00 am - 2:00 am,Yes,11:00 am - 2:00 am,Yes,Free,MI Detroit Corktown,Claimed,,mcshanes-irish-pub-and-whiskey-bar-detroit,42.3317007,-83.0667094,Moderate,4.0,nemos-bar-detroit,tommys-detroit-bar-and-grill-detroit,thomas-magees-sporting-house-whiskey-bar-detroit,67,"American(Traditional),IrishPub,WhiskeyBars",McShane’s Irish Pub & Whiskey Bar,https://www.yelp.com/biz/mcshanes-irish-pub-and-whiskey-bar-detroit?osq=food
115,,,,,,,,,,,,,,,,,,,,,,,,,,,,,,,,,,,,,,,,,,,,,MI Detroit Corktown,Claimed,,noodl-detroit-2,42.3294408413609,-83.0656778885776,,,evies-tamales-detroit,tamaleria-nuevo-leon-detroit,mudgies-detroit,,,Noodl,https://www.yelp.com/biz/noodl-detroit-2?osq=food
116,,,,Yes,,FullBar,,,,,,,,,No,,,4:00 pm - 2:00 am,,,,,,,,,,Closed,,,,,"Street,PrivateLot",4:00 pm - 2:00 am,,4:00 pm - 2:00 am,Yes,Yes,4:00 pm - 2:00 am,Closed,Yes,4:00 pm - 2:00 am,Yes,,MI Detroit Corktown,Claimed,,lady-of-the-house-detroit,42.3298029,-83.0648643,,,,,,,,Lady of the House,https://www.yelp.com/biz/lady-of-the-house-detroit?osq=food
117,,,,,,,,,,,,,,,,,,,,,,,,,,,,,,,,,,,,,,,,,,,,,MI Detroit Corktown,Unclaimed,,maxies-deli-detroit,42.330967,-83.065358,,,alcamos-market-dearborn,ventimiglia-italian-foods-sterling-heights,gonellas-foods-detroit,,,Maxie’s Deli,https://www.yelp.com/biz/maxies-deli-detroit?osq=food
118,,,,Yes,,,,,,Yes,,,Yes,,No,,,,,,,No,Yes,,,,No,,,,,No,,,,,Yes,No,,,,,,,MI Detroit Corktown,Unclaimed,,subway-detroit-67,42.331125,-83.069702,Inexpensive,3.5,,,,2,"Sandwiches,FastFood",Subway,https://www.yelp.com/biz/subway-detroit-67?osq=food
119,,,,,,,,,,,,,,,,,,,,,,,,,,,,,,,,,,,,,,,,,,,,,MI Detroit Corktown,Unclaimed,,bagley-trumbull-market-detroit-2,42.32962,-83.065821,,3.0,bagley-trumbull-market-detroit-2,7-11-stores-detroit,sunoco-detroit-7,1,ConvenienceStores,Bagley Trumbull Market,https://www.yelp.com/biz/bagley-trumbull-market-detroit-2?osq=food
120,,,No,No,,,,,,,,,,,,,,,,,,,,,,,,,,,,,,,,,,,,,,,,,MI Detroit Corktown,Claimed,,dr-sushi-detroit-2,42.33902511361995,-83.32134246826172,,4.5,laurel-manor-banquet-and-conference-center-livonia,jeff-zak-catering-inc-plymouth-2,thomass-catering-livonia,2,Caterers,Dr. Sushi,https://www.yelp.com/biz/dr-sushi-detroit-2?osq=food
121,,,,,,,,,,,,,,,,,,,,,,,,,,,,,,,,,,,,,,,,,,,,,MI Detroit Corktown,Unclaimed,,serra-produce-detroit,42.325598,-83.065691,,,the-fish-market-dearborn,alcamos-market-dearborn,boffs-market-warren,,,Serra Produce,https://www.yelp.com/biz/serra-produce-detroit?osq=food
122,,,,,,,,,,,,,,,,,,,,,,,,,,,,,,,,,,,,,,,,,,,,,MI Detroit Corktown,Unclaimed,,nikis-food-company-detroit,42.3339859,-83.065595,,,,,,,,Niki’s Food Company,https://www.yelp.com/biz/nikis-food-company-detroit?osq=food
123,,No,,Yes,,FullBar,Trendy,Casual,,Yes,,,Yes,,No,,,,,Lunch,,Yes,Yes,,,,No,,,Quiet,,No,Garage,,,,No,No,,,No,,,Free,MI Detroit Cultural_Center,,,kresge-court-at-detroit-institute-of-arts-detroit,42.3590826,-83.0655486,Moderate,4.5,the-potato-place-detroit,guardian-building-detroit,caf%C3%A9dia-detroit-2,31,American(New),Kresge Court at Detroit Institute of Arts,https://www.yelp.com/biz/kresge-court-at-detroit-institute-of-arts-detroit?osq=food
124,,,,Yes,,FullBar,Casual,Casual,Fri,Yes,,,No,No,No,,,11:00 am - 2:00 am,,"Lunch,LateNight",No,Yes,No,,Yes,Yes,Yes,11:00 am - 2:00 am,,Average,,No,Street,12:00 pm - 2:00 am,No,Closed,Yes,No,11:00 am - 2:00 am,11:00 am - 2:00 am,Yes,11:00 am - 2:00 am,Yes,Free,MI Detroit Cultural_Center,Unclaimed,,circa-1890-saloon-detroit-2,42.3603914,-83.0691352,Inexpensive,4.0,zs-villa-detroit,union-street-detroit,the-potato-place-detroit,50,"Pubs,American(Traditional)",Circa 1890 Saloon,https://www.yelp.com/biz/circa-1890-saloon-detroit-2?osq=food
125,No,No,,Yes,,FullBar,,,,Yes,,,Yes,,Yes,No,,11:00 am - 12:00 am,,,,,,,,,Yes,11:00 am - 4:00 pm,,,Yes,No,"Garage,Street",11:00 am - 12:00 am,,11:00 am - 4:00 pm,Yes,Yes,11:00 am - 9:00 pm,11:00 am - 4:00 pm,Yes,11:00 am - 9:00 pm,Yes,Free,MI Detroit Cultural_Center,Claimed,,5057atmaccabees-detroit-3,42.3574691,-83.065314,Inexpensive,2.5,,,,7,"Sandwiches,American(New),Bars",5057atMaccabees,https://www.yelp.com/biz/5057atmaccabees-detroit-3?osq=food
126,,No,No,Yes,,No,Classy,Casual,,Yes,No,,Yes,,No,,,8:00 am - 7:00 pm,,"Breakfast,Dessert",,Yes,Yes,Yes,,,No,8:00 am - 7:00 pm,,Quiet,,No,"Garage,Street",8:00 am - 4:00 pm,,9:00 am - 4:00 pm,Yes,No,8:00 am - 7:00 pm,8:00 am - 7:00 pm,No,8:00 am - 7:00 pm,Yes,Free,MI Detroit Cultural_Center,Claimed,,fourteen-east-detroit,42.3604245386228,-83.0664246698505,Inexpensive,4.0,avalon-international-breads-detroit,astro-coffee-detroit,great-lakes-coffee-roasting-company-detroit,47,"Cafes,ArtGalleries,Coffee&Tea",Fourteen East,https://www.yelp.com/biz/fourteen-east-detroit?osq=food
127,,,,No,,,,,,Yes,,,,,,,,Closed,,,,,,,,,,Closed,,,,,Street,Closed,,Closed,,,Closed,Closed,,11:00 am - 4:00 pm,Yes,,MI Detroit Cultural_Center,Unclaimed,,wayne-state-farmers-market-detroit,42.3580025,-83.0679395,Inexpensive,4.5,greenhouse-growers-saint-clair-shores,royal-oak-farmers-market-royal-oak,eastern-market-detroit-4,11,FarmersMarket,Wayne State Farmers Market,https://www.yelp.com/biz/wayne-state-farmers-market-detroit?osq=food
128,,,,Yes,,No,,Casual,,Yes,,,Yes,,No,,,9:00 am - 7:00 pm,,Lunch,,Yes,Yes,,,,Yes,9:00 am - 9:00 pm,,Average,,Yes,Garage,9:00 am - 4:00 pm,,Closed,Yes,No,9:00 am - 9:00 pm,9:00 am - 9:00 pm,Yes,9:00 am - 9:00 pm,,Free,MI Detroit Cultural_Center,Unclaimed,,la-pita-fresh-detroit,42.3570276,-83.0662757,Inexpensive,3.5,la-pita-dearborn-2,al-ameer-dearborn,royal-kabob-hamtramck,39,MiddleEastern,La Pita Fresh,https://www.yelp.com/biz/la-pita-fresh-detroit?osq=food
129,,,,Yes,,FullBar,,,,,,,,,No,,,11:00 am - 2:00 am,,,,,,,,,Yes,11:00 am - 9:00 pm,,,,,"Garage,Street,Validated",11:00 am - 2:00 am,,10:00 am - 3:00 pm,Yes,Yes,11:00 am - 2:00 am,11:00 am - 9:00 pm,Yes,11:00 am - 9:00 pm,Yes,Free,MI Detroit Cultural_Center,Claimed,,maccabees-traders-detroit,42.3574691,-83.065314,,,,,,,,Maccabees Traders,https://www.yelp.com/biz/maccabees-traders-detroit?osq=food
130,,,,Yes,,No,Casual,Casual,,,,,No,,No,,,,,Lunch,,Yes,Yes,,,,Yes,,,Quiet,,No,Street,,,,Yes,No,,,Yes,,,No,MI Detroit Cultural_Center,Unclaimed,,old-campus-restaurant-detroit,42.3604171,-83.0688664,Inexpensive,3.0,epicurus-restaurant-of-wayne-state-detroit-3,zeffs-coney-island-restaurant-detroit,louies-ham-and-corned-beef-detroit,18,Diners,Old Campus Restaurant,https://www.yelp.com/biz/old-campus-restaurant-detroit?osq=food
131,,,,Yes,,,,,,,,,No,,,,,,,,,,,,,,,,,,,,,,,,No,,,,,,,,MI Detroit Cultural_Center,Unclaimed,,s-and-l-quickstop-detroit,42.3561563,-83.065931,Moderate,4.0,rite-aid-detroit-5,ernies-market-oak-park,s-and-l-quickstop-detroit,1,ConvenienceStores,S & L Quickstop,https://www.yelp.com/biz/s-and-l-quickstop-detroit?osq=food
132,,,,Yes,,,,,,,,,,,,,,7:00 am - 5:30 pm,,,,,,,,,,7:00 am - 6:30 pm,,,,,,10:00 am - 1:00 pm,,Closed,,,7:00 am - 6:30 pm,7:00 am - 6:30 pm,,7:00 am - 6:30 pm,,,MI Detroit Cultural_Center,Claimed,,wayne-party-store-detroit-2,42.3603388,-83.0691053,,3.0,rite-aid-troy,blue-diamond-market-warren,the-general-store-royal-oak,1,ConvenienceStores,Wayne Party Store,https://www.yelp.com/biz/wayne-party-store-detroit-2?osq=food
133,,,,,,,,,,,,,,,,,,,,,,,,,,,,,,,,,,,,,,,,,,,,,MI Detroit Cultural_Center,Unclaimed,,motor-city-news-stand-detroit-2,42.3574691,-83.065314,,,,,,,,Motor City News Stand,https://www.yelp.com/biz/motor-city-news-stand-detroit-2?osq=food
134,No,No,No,Yes,,No,,Casual,,Yes,,,Yes,,No,,,10:00 am - 6:00 pm,,Lunch,,Yes,Yes,,,,No,10:00 am - 5:00 pm,,Average,,Yes,"Street,PrivateLot",Closed,,Closed,Yes,No,10:00 am - 5:00 pm,10:00 am - 5:00 pm,No,10:00 am - 5:00 pm,Yes,Free,MI Detroit Delray,Claimed,,detroit-75-kitchen-detroit,42.310743,-83.094497,Inexpensive,4.5,taqueria-el-rey-detroit,mudgies-deli-detroit,pupuser%C3%ADa-y-restaurante-salvadore%C3%B1o-detroit-2,69,"FoodTrucks,American(Traditional),Sandwiches",Detroit 75 Kitchen,https://www.yelp.com/biz/detroit-75-kitchen-detroit?osq=food
135,,No,,No,,No,Casual,Casual,,No,,,No,,No,,No,10:00 am - 4:00 pm,,"Lunch,Dinner",,No,Yes,,,,No,10:00 am - 4:00 pm,,Average,,No,PrivateLot,10:00 am - 4:00 pm,,Closed,Yes,No,10:00 am - 4:00 pm,10:00 am - 4:00 pm,No,10:00 am - 4:00 pm,Yes,No,MI Detroit Delray,Unclaimed,,motzs-hamburgers-detroit,42.3025901,-83.1135803,Inexpensive,4.5,elmers-hamburgers-detroit,honest-johns-bar-and-grill-detroit,the-bronx-bar-detroit,54,Burgers,Motz’s Hamburgers,https://www.yelp.com/biz/motzs-hamburgers-detroit?osq=food
136,,,,No,,No,,Casual,,Yes,,,Yes,,No,,,9:00 am - 9:00 pm,,,,No,Yes,,,,No,Closed,,Quiet,,No,,9:00 am - 9:00 pm,,9:00 am - 9:00 pm,Yes,No,Closed,Closed,Yes,Closed,,No,MI Detroit Delray,Unclaimed,,taqueria-valente-detroit,42.305938,-83.10576,Inexpensive,5.0,cobo-joes-bar-detroit-3,taqueria-mi-pueblo-detroit,taqueria-el-rey-detroit,4,Mexican,Taqueria Valente,https://www.yelp.com/biz/taqueria-valente-detroit?osq=food
137,,,,,,,,,,,,,,,,,,,,,,,,,,,,,,,,,,,,,,,,,,,,,MI Detroit Delray,Unclaimed,,west-fort-bar-and-grill-detroit,42.3017592,-83.116046,,2.5,kovacs-bar-detroit,park-bar-detroit,cliff-bells-detroit,2,"Bars,American(Traditional)",West Fort Bar & Grill,https://www.yelp.com/biz/west-fort-bar-and-grill-detroit?osq=food
138,,,,No,,No,,Casual,,Yes,,,No,,No,,,,,,,No,Yes,,,,Yes,,,Quiet,,No,,,,,Yes,No,,,No,,,No,MI Detroit Delray,Unclaimed,,motown-chicken-and-deli-detroit,42.3028112,-83.1124455,,,el-asador-detroit,shish-palace-allen-park,la-pita-dearborn-2,,,Motown Chicken and Deli,https://www.yelp.com/biz/motown-chicken-and-deli-detroit?osq=food
139,,,,,,,,,,,,,,,,,,,,,,,,,,,,,,,,,,,,,,,,,,,,,MI Detroit Delray,Unclaimed,,star-coney-island-detroit,42.309708,-83.097189,,,kates-kitchen-flat-rock,p-t-christoffs-woodhaven,georges-family-restaurant-trenton,,,Star Coney Island,https://www.yelp.com/biz/star-coney-island-detroit?osq=food
140,,,,,,,,,,,,,,,,,,,,,,,,,,,,,,,,,,,,,,,,,,,,,MI Detroit Delray,Unclaimed,,toms-detroit,42.3068574,-83.1029651,,,,,,,,Tom’s,https://www.yelp.com/biz/toms-detroit?osq=food
141,,,,,,,,,,,,,,,,,,,,,,,,,,,,,,,,,,,,,,,,,,,,,MI Detroit Delray,Unclaimed,,oscar-coney-island-detroit-2,42.3070425,-83.1033334,,,,,,,,Oscar Coney Island,https://www.yelp.com/biz/oscar-coney-island-detroit-2?osq=food
142,,,,No,,,,,,Yes,,,,,,,,9:00 am - 4:30 pm,,,,,,,,,,9:00 am - 4:30 pm,,,,,,9:00 am - 2:00 pm,,Closed,,,9:00 am - 4:30 pm,9:00 am - 4:30 pm,,9:00 am - 4:30 pm,,,MI Detroit Delray,Claimed,,california-wine-grapes-co-detroit,42.3025024,-83.1141239,Inexpensive,3.5,steves-party-store-hamtramck,wine-captain-party-shoppe-dearborn,village-wine-shop-grosse-pointe,4,"BuildingSupplies,Beer,Wine&Spirits,Home&Garden",California Wine Grapes Co Inc,https://www.yelp.com/biz/california-wine-grapes-co-detroit?osq=food
143,,,,No,,,,,,,,,,,,,,,,,,,,,,,,,,,,,,,,,,,,,,,,,MI Detroit Delray,Unclaimed,,patisserie-by-matt-knio-detroit,42.2976202,-83.1173388,Inexpensive,4.5,masri-sweets-dearborn,la-gloria-bakery-detroit,knudsens-danish-bakery-detroit,2,Bakeries,Patisserie by Matt Knio,https://www.yelp.com/biz/patisserie-by-matt-knio-detroit?osq=food
144,,,,Yes,,,,,,,,,,,,,,Open 24 hours,,,,,,,,,,Open 24 hours,,,,,,Open 24 hours,,Open 24 hours,,,Open 24 hours,Open 24 hours,,Open 24 hours,,,MI Detroit Delray,Claimed,,us-fuel-truck-stop-detroit,42.310743,-83.094497,,,,,,,,US Fuel Truck Stop,https://www.yelp.com/biz/us-fuel-truck-stop-detroit?osq=food
145,,,,,,,,,,,,,,,,,,,,,,,,,,,,,,,,,,,,,,,,,,,,,MI Detroit Delray,Unclaimed,,detroit-produce-terminal-detroit,42.300643,-83.114301,,,bozeks-meat-and-groceries-hamtramck,honey-bee-la-colmena-detroit,saad-wholesale-meats-detroit-2,,,Detroit Produce Terminal,https://www.yelp.com/biz/detroit-produce-terminal-detroit?osq=food
146,,,,,,,,,,,,,,,,,,,,,,,,,,,,,,,,,,,,,,,,,,,,,MI Detroit Delray,Unclaimed,,d-js-liquor-food-and-deli-detroit,42.3091801,-83.0984365,,,,,,,,D J’s Liquor Food and Deli,https://www.yelp.com/biz/d-js-liquor-food-and-deli-detroit?osq=food
147,,,,,,,,,,,,,,,,,,,,,,,,,,,,,,,,,,,,,,,,,,,,,MI Detroit Delray,Unclaimed,,eddies-produce-express-detroit,42.3014113,-83.1149998,,,,,,,,Eddies Produce Express,https://www.yelp.com/biz/eddies-produce-express-detroit?osq=food
148,,,,,,,,,,,,,,,,,,,,,,,,,,,,,,,,,,,,,,,,,,,,,MI Detroit Delray,Unclaimed,,shippers-service-detroit,42.3014113,-83.1149998,,,,,,,,Shippers Service,https://www.yelp.com/biz/shippers-service-detroit?osq=food
149,,,,,,,,,,,,,,,,,,,,,,,,,,,,,,,,,,,,,,,,,,,,,MI Detroit Delray,Unclaimed,,greens-variety-store-detroit,42.2958628,-83.110966,,,alcamos-market-dearborn,honey-bee-la-colmena-detroit,la-luna-supermercado-detroit,,,Green’s Variety Store,https://www.yelp.com/biz/greens-variety-store-detroit?osq=food
150,,,,,,,,,,,,,,,,,,,,,,,,,,,,,,,,,,,,,,,,,,,,,MI Detroit Delray,Unclaimed,,becker-harry-detroit,42.3014113,-83.1149998,,,,,,,,Becker Harry,https://www.yelp.com/biz/becker-harry-detroit?osq=food
151,,,,,,,,,,,,,,,,,,,,,,,,,,,,,,,,,,,,,,,,,,,,,MI Detroit Delray,Unclaimed,,serra-brothers-detroit,42.3014113,-83.1149998,,,,,,,,Serra Brothers,https://www.yelp.com/biz/serra-brothers-detroit?osq=food
152,,,,,,,,,,,,,,,,,,,,,,,,,,,,,,,,,,,,,,,,,,,,,MI Detroit Delray,Unclaimed,,mazzola-j-r-detroit,42.3014113,-83.1149998,,,,,,,,Mazzola J R,https://www.yelp.com/biz/mazzola-j-r-detroit?osq=food
153,,,,,,,,,,,,,,,,,,,,,,,,,,,,,,,,,,,,,,,,,,,,,MI Detroit Delray,Unclaimed,,s-and-m-produce-detroit,42.301811,-83.1158279,,,,,,,,S & M Produce,https://www.yelp.com/biz/s-and-m-produce-detroit?osq=food
154,,,,,,,,,,,,,,,,,,,,,,,,,,,,,,,,,,,,,,,,,,,,,MI Detroit Delray,Unclaimed,,party-store-detroit,42.3053618,-83.1070439,,,,,,,,Party Store,https://www.yelp.com/biz/party-store-detroit?osq=food
155,,,,,,,,,,,,,,,,,,,,,,,,,,,,,,,,,,,,,,,,,,,,,MI Detroit Delray,Unclaimed,,ram-produce-distributors-detroit-2,42.3014113,-83.1149998,,,,,,,,Ram Produce Distributors,https://www.yelp.com/biz/ram-produce-distributors-detroit-2?osq=food
156,,,,,,,,,,,,,,,,,,,,,,,,,,,,,,,,,,,,,,,,,,,,,MI Detroit Delray,Unclaimed,,royal-banana-detroit,42.3014113,-83.1149998,,,,,,,,Royal Banana,https://www.yelp.com/biz/royal-banana-detroit?osq=food
157,,,,,,,,,,,,,,,,,,,,,,,,,,,,,,,,,,,,,,,,,,,,,MI Detroit Delray,Unclaimed,,produce-buyers-co-detroit,42.3014113,-83.1149998,,,,,,,,Produce Buyers Co,https://www.yelp.com/biz/produce-buyers-co-detroit?osq=food
158,,,,,,,,,,,,,,,,,,,,,,,,,,,,,,,,,,,,,,,,,,,,,MI Detroit Delray,Unclaimed,,richard-lucido-and-sons-produce-detroit,42.3014113,-83.1149998,,,,,,,,Richard Lucido & Sons Produce,https://www.yelp.com/biz/richard-lucido-and-sons-produce-detroit?osq=food
159,,,,,,,,,,,,,,,,,,,,,,,,,,,,,,,,,,,,,,,,,,,,,MI Detroit Delray,Unclaimed,,all-american-party-store-detroit,42.2927519,-83.1268855,,,,,,,,All American Party Store,https://www.yelp.com/biz/all-american-party-store-detroit?osq=food
160,,,,,,,,,,,,,,,,,,,,,,,,,,,,,,,,,,,,,,,,,,,,,MI Detroit Delray,Unclaimed,,andrews-bros-detroit,42.3014113,-83.1149998,,,,,,,,Andrews Bros,https://www.yelp.com/biz/andrews-bros-detroit?osq=food
161,,No,,Yes,,FullBar,Casual,Casual,,Yes,,,Yes,,No,Yes,,11:00 am - 1:00 am,,"Lunch,Dinner",,Yes,Yes,,,,Yes,11:00 am - 1:00 am,,Average,,Yes,"Street,PrivateLot",11:00 am - 1:00 am,,12:00 pm - 10:00 pm,Yes,Yes,11:00 am - 1:00 am,11:00 am - 1:00 am,Yes,11:00 am - 1:00 am,Yes,Free,MI Detroit Depot_Town_Ypsilanti,Claimed,,ma%C3%ACz-mexican-cantina-ypsilanti-2,42.2459157,-83.6106202,Moderate,4.0,sidetrack-ypsilanti,la-fiesta-mexicana-ypsilanti,la-casita-ypsilanti,217,Mexican,Maìz Mexican Cantina,https://www.yelp.com/biz/ma%C3%ACz-mexican-cantina-ypsilanti-2?osq=food
162,,,,Yes,,,,,,Yes,,,,,,,,9:00 am - 9:00 pm,,,,,,,,,,9:00 am - 9:00 pm,,,,,Street,9:00 am - 9:00 pm,,9:00 am - 9:00 pm,Yes,,9:00 am - 9:00 pm,9:00 am - 9:00 pm,,9:00 am - 9:00 pm,Yes,,MI Detroit Depot_Town_Ypsilanti,Claimed,,ypsilanti-food-co-op-ypsilanti,42.2451187,-83.6083573,Moderate,4.0,sparrow-meat-market-ann-arbor,whole-foods-market-ann-arbor,holiday-market-canton,31,Grocery,Ypsilanti Food Co-Op,https://www.yelp.com/biz/ypsilanti-food-co-op-ypsilanti?osq=food
163,No,No,,Yes,,No,Divey,Casual,,Yes,,,No,,No,,,7:00 am - 3:00 pm,,"Breakfast,Brunch",,Yes,Yes,,,,No,7:00 am - 3:00 pm,,Average,,No,"Street,PrivateLot",7:00 am - 3:00 pm,,7:00 am - 3:00 pm,Yes,No,7:00 am - 3:00 pm,7:00 am - 3:00 pm,Yes,7:00 am - 3:00 pm,Yes,No,MI Detroit Depot_Town_Ypsilanti,Claimed,,the-bomber-restaurant-ypsilanti,42.2410258,-83.6059379,Inexpensive,4.0,afternoon-delight-ann-arbor-2,omelette-and-waffle-cafe-plymouth,village-kitchen-ann-arbor,155,"Diners,Breakfast&Brunch",The Bomber Restaurant,https://www.yelp.com/biz/the-bomber-restaurant-ypsilanti?osq=food
164,,,,Yes,,,,,,,,,,,,,,11:00 am - 7:30 pm,,,,,,,,,,11:00 am - 7:30 pm,,,,,Street,11:00 am - 7:30 pm,,Closed,,,11:00 am - 7:30 pm,11:00 am - 7:30 pm,,11:00 am - 7:30 pm,,,MI Detroit Depot_Town_Ypsilanti,Claimed,,harvest-kitchen-ypsilanti,42.2458346,-83.6098762,Pricey,4.5,produce-station-ann-arbor,thomass-catering-livonia,door-to-door-organics-livonia-2,14,"SpecialtyFood,FoodDeliveryServices",Harvest Kitchen,https://www.yelp.com/biz/harvest-kitchen-ypsilanti?osq=food
165,,No,,Yes,,FullBar,Casual,Casual,"Thu,Fri,Sat",No,,,Yes,No,Yes,,,11:00 am - 2:00 am,,"Lunch,Dinner,LateNight",No,Yes,Yes,,Yes,Yes,Yes,11:00 am - 2:00 am,,Average,,Yes,"Street,PrivateLot",11:00 am - 2:00 am,No,12:00 pm - 2:00 am,Yes,Yes,11:00 am - 2:00 am,11:00 am - 2:00 am,Yes,11:00 am - 2:00 am,Yes,Free,MI Detroit Depot_Town_Ypsilanti,Claimed,,aubrees-pizzeria-and-grill-ypsilanti-3,42.2458355,-83.6098983,Moderate,3.5,pizza-perfect-ypsilanti,tap-room-ypsilanti,mr-pizza-ypsilanti-2,129,"Pizza,Bars",Aubree’s Pizzeria & Grill,https://www.yelp.com/biz/aubrees-pizzeria-and-grill-ypsilanti-3?osq=food
166,,,,,,,,,,,,,,,,,,9:00 am - 5:00 pm,,,,,,,,,,9:00 am - 5:00 pm,,,,,,9:00 am - 5:00 pm,,9:00 am - 5:00 pm,Yes,,9:00 am - 5:00 pm,9:00 am - 5:00 pm,,9:00 am - 5:00 pm,,,MI Detroit Depot_Town_Ypsilanti,Unclaimed,,hyperion-coffee-company-ypsilanti,42.24469,-83.60799,Moderate,5.0,,,,2,CoffeeRoasteries,Hyperion Coffee Company,https://www.yelp.com/biz/hyperion-coffee-company-ypsilanti?osq=food
167,,,,,,,,,,,,,,,,,,11:00 am - 7:00 pm,,,,,,,,,,11:00 am - 7:00 pm,,,,,,Closed,,Closed,,No,11:00 am - 7:00 pm,11:00 am - 7:00 pm,,11:00 am - 7:00 pm,,,MI Detroit Depot_Town_Ypsilanti,Unclaimed,,stuffyourbelly-ypsilanti,42.2413942,-83.6073919,,5.0,powells-pub-ypsilanti,eat-ann-arbor-2,mac-shack-madison-heights,4,"FoodTrucks,Burgers",Stuffyourbelly,https://www.yelp.com/biz/stuffyourbelly-ypsilanti?osq=food
168,,,,Yes,,,,,,,,,,,,,,10:00 am - 8:00 pm,,,,,,,,,,10:00 am - 8:00 pm,,,,,Street,10:00 am - 8:00 pm,,10:00 am - 8:00 pm,,,10:00 am - 8:00 pm,10:00 am - 8:00 pm,,10:00 am - 8:00 pm,,,MI Detroit Depot_Town_Ypsilanti,Unclaimed,,mi-general-store-ypsilanti,42.2458919,-83.6118896,Moderate,4.5,monahans-seafood-market-ann-arbor,biercamp-ann-arbor,dos-hermanos-market-ypsilanti,6,SpecialtyFood,MI General Store,https://www.yelp.com/biz/mi-general-store-ypsilanti?osq=food
169,,,,,,,,,,,,,,,,,,5:00 pm - 2:00 am,,,,,,,,,,5:00 pm - 2:00 am,,,,,,5:00 pm - 2:00 am,,5:00 pm - 2:00 am,,,5:00 pm - 2:00 am,5:00 pm - 2:00 am,,5:00 pm - 2:00 am,,,MI Detroit Depot_Town_Ypsilanti,Unclaimed,,sticks-ypsilanti,42.246161,-83.6095903,,4.0,ball-and-cue-billiards-and-pro-shop-lincoln-park,fiddle-wayne,breaktime-billiards-bar-and-grill-novi,1,"PoolHalls,Bars,American(New)",Sticks,https://www.yelp.com/biz/sticks-ypsilanti?osq=food
170,,,,,,,,,,,,,,,,,,,,,,,,,,,,,,,,,,,,,,,,,,,,,MI Detroit Depot_Town_Ypsilanti,Unclaimed,,old-world-bakery-ypsilanti,42.2416967,-83.6128689,,,zingermans-bakehouse-ann-arbor-2,the-bake-shoppe-belleville,dom-bakeries-ypsilanti,,,Old World Bakery,https://www.yelp.com/biz/old-world-bakery-ypsilanti?osq=food
172,,,,,,,,,,,,,,,,,,9:00 am - 7:00 pm,,,,,,,,,,9:00 am - 7:00 pm,,,,,,9:00 am - 7:00 pm,,9:00 am - 7:00 pm,,,Closed,9:00 am - 7:00 pm,,9:00 am - 7:00 pm,,Free,MI Detroit Depot_Town_Ypsilanti,Claimed,,a-pocketful-o-tea-ypsilanti,42.241272,-83.612379,,,the-ugly-mug-caf%C3%A9-ypsilanti-2,starbucks-ann-arbor-17,roosroast-coffee-ann-arbor,,,A Pocketful o’ Tea,https://www.yelp.com/biz/a-pocketful-o-tea-ypsilanti?osq=food
174,,,,Yes,,No,Casual,Casual,,Yes,,,Yes,,No,,,10:00 am - 8:30 pm,,"Lunch,Dinner",,Yes,Yes,,,,Yes,10:00 am - 8:30 pm,,Quiet,,No,PrivateLot,10:00 am - 7:30 pm,,Closed,Yes,No,10:00 am - 8:30 pm,10:00 am - 8:30 pm,No,10:00 am - 8:30 pm,,No,MI Detroit Downriver,Claimed,,peepos-subs-and-shawarma-taylor,42.2267619,-83.2884037,Inexpensive,4.5,beirut-restaurant-romulus,airport-wheat-and-rye-romulus,al-sultan-restaurant-garden-city,85,"MiddleEastern,Sandwiches,Halal",Peepo’s Subs & Shawarma,https://www.yelp.com/biz/peepos-subs-and-shawarma-taylor?osq=food
175,Yes,Yes,,Yes,,No,Casual,Casual,,No,,,Yes,,Yes,,,,,"Lunch,Dinner",,Yes,Yes,,,,No,,,Average,,No,PrivateLot,,,,Yes,No,,,Yes,,Yes,No,MI Detroit Downriver,Unclaimed,,beirut-restaurant-romulus,42.2483726006121,-83.3484947571604,Moderate,4.0,la-pita-dearborn-2,hamido-dearborn,al-ameer-dearborn,321,MiddleEastern,Beirut Restaurant,https://www.yelp.com/biz/beirut-restaurant-romulus?osq=food
176,,No,,No,,No,,Casual,,Yes,,,No,,No,,No,10:00 am - 10:00 pm,,,,No,Yes,,,,No,10:00 am - 10:00 pm,,Average,,Yes,,10:00 am - 10:00 pm,,10:00 am - 10:00 pm,Yes,No,10:00 am - 10:00 pm,10:00 am - 10:00 pm,Yes,10:00 am - 10:00 pm,,,MI Detroit Downriver,Unclaimed,,wimpy-burger-flat-rock,42.0954607135496,-83.2900739461184,Inexpensive,5.0,kates-kitchen-flat-rock,blue-sky-ice-cream-and-hamburger-romulus,moms-restaurant-trenton,11,"Burgers,HotDogs",Wimpy Burger,https://www.yelp.com/biz/wimpy-burger-flat-rock?osq=food
177,,Yes,,Yes,,No,Casual,Casual,,Yes,,,Yes,,No,,,10:00 am - 10:00 pm,,"Lunch,Dinner",,Yes,Yes,,,,No,10:00 am - 10:00 pm,,Average,,No,PrivateLot,10:00 am - 10:00 pm,,10:00 am - 10:00 pm,Yes,No,10:00 am - 10:00 pm,10:00 am - 10:00 pm,Yes,10:00 am - 10:00 pm,Yes,No,MI Detroit Downriver,Claimed,,malek-al-kabob-taylor,42.226425,-83.2539334,Moderate,4.5,hamido-dearborn,al-ameer-dearborn,beirut-restaurant-romulus,141,MiddleEastern,Malek Al Kabob,https://www.yelp.com/biz/malek-al-kabob-taylor?osq=food
178,No,No,,Yes,,FullBar,Casual,Casual,,Yes,,,Yes,,Yes,,,11:00 am - 1:00 am,,Dinner,,Yes,Yes,,,,Yes,11:00 am - 12:00 am,,Average,,Yes,PrivateLot,4:00 pm - 12:00 am,,4:00 pm - 12:00 am,Yes,Yes,11:00 am - 12:00 am,11:00 am - 12:00 am,Yes,11:00 am - 12:00 am,Yes,No,MI Detroit Downriver,Claimed,,leonardos-italian-grille-romulus-2,42.2496378,-83.3463083,Moderate,4.0,moros-dining-allen-park,carieras-restaurant-dearborn-heights,al-sultan-restaurant-garden-city,152,Italian,Leonardo’s Italian Grille,https://www.yelp.com/biz/leonardos-italian-grille-romulus-2?osq=food
179,,,,Yes,,No,,Casual,,Yes,,,,,Yes,,No,11:00 am - 8:00 pm,,Lunch,,Yes,Yes,,,,No,11:00 am - 8:00 pm,,Average,,No,,11:00 am - 8:00 pm,,Closed,Yes,No,11:00 am - 8:00 pm,11:00 am - 8:00 pm,Yes,11:00 am - 8:00 pm,,No,MI Detroit Downriver,Unclaimed,,howsa-bouta-old-tyme-burger-rockwood,42.0682199,-83.251039,Inexpensive,5.0,michaels-on-the-river-flat-rock,blue-sky-ice-cream-and-hamburger-romulus,bob-jos-frozen-custard-wyandotte,18,Burgers,Howsa Bouta Old Tyme Burger,https://www.yelp.com/biz/howsa-bouta-old-tyme-burger-rockwood?osq=food
180,,,,Yes,,No,Casual,Casual,,Yes,,,,,No,,,9:30 am - 8:00 pm,,Lunch,,No,Yes,,,,No,9:30 am - 8:00 pm,,Quiet,,Yes,PrivateLot,9:30 am - 4:00 pm,,Closed,Yes,No,9:30 am - 8:00 pm,9:30 am - 8:00 pm,No,9:30 am - 8:00 pm,,No,MI Detroit Downriver,Claimed,,vinnies-italian-sub-shop-romulus,42.2507417,-83.3287375,Inexpensive,4.5,captain-nemos-submarine-sandwiches-romulus,airport-wheat-and-rye-romulus,the-cordial-shoppe-taylor,38,"Delis,Sandwiches",Vinnie’s Italian Sub Shop,https://www.yelp.com/biz/vinnies-italian-sub-shop-romulus?osq=food
181,,,,Yes,,No,Casual,Casual,,Yes,,,,,No,,,11:00 am - 9:00 pm,,Lunch,,Yes,Yes,,,,No,11:00 am - 9:00 pm,,Quiet,,Yes,Street,4:00 pm - 9:00 pm,,Closed,Yes,No,11:00 am - 9:00 pm,11:00 am - 9:00 pm,Yes,11:00 am - 9:00 pm,,No,MI Detroit Downriver,Unclaimed,,coastal-thai-wyandotte,42.2010597,-83.1510172,Moderate,4.0,bangkok-96-restaurant-dearborn,thai-place-southgate,thai-vylai-allen-park,72,Thai,Coastal Thai,https://www.yelp.com/biz/coastal-thai-wyandotte?osq=food
182,No,No,,Yes,,FullBar,Casual,Casual,"Thu,Fri,Sat",Yes,,,Yes,No,No,,,11:00 am - 2:00 am,,"Lunch,Dinner,LateNight",No,Yes,No,,Yes,No,Yes,11:00 am - 2:00 am,Live,Average,,No,PrivateLot,10:00 am - 2:00 am,No,10:00 am - 2:00 am,Yes,No,11:00 am - 2:00 am,11:00 am - 2:00 am,Yes,11:00 am - 2:00 am,,Free,MI Detroit Downriver,Claimed,,bierkeller-taylor,42.2273889954604,-83.2306288182735,Moderate,4.0,moros-dining-allen-park,mallies-sports-grill-and-bar-southgate,malek-al-kabob-taylor,112,"German,American(Traditional),Bars",Bierkeller,https://www.yelp.com/biz/bierkeller-taylor?osq=food
183,,No,,Yes,,FullBar,Casual,Casual,,Yes,,,Yes,,Yes,,,3:00 pm - 1:00 am,,Dinner,,Yes,Yes,,,,Yes,3:00 pm - 1:00 am,,Average,,No,PrivateLot,3:00 pm - 1:00 am,,3:00 pm - 11:00 pm,Yes,No,3:00 pm - 1:00 am,3:00 pm - 1:00 am,Yes,3:00 pm - 1:00 am,,Free,MI Detroit Downriver,Claimed,,merriman-street-grill-romulus,42.2482771,-83.3486037,Moderate,3.5,romulus-house-restaurant-romulus,wild-willys-bar-and-grill-romulus,texas-roadhouse-taylor,123,American(Traditional),Merriman Street Grill,https://www.yelp.com/biz/merriman-street-grill-romulus?osq=food
184,,No,,Yes,,,,,,No,,,,,,,,,,,,,,,,,,,,,,,,,,,No,,,,,,,,MI Detroit Downriver,Unclaimed,,better-health-market-southgate,42.1987542,-83.2234566,Pricey,3.5,,,,9,"DiscountStore,HealthMarkets",Better Health Market,https://www.yelp.com/biz/better-health-market-southgate?osq=food
186,,Yes,No,Yes,,,,,,No,,,,,,No,,9:00 am - 12:00 am,,,,,,,,,,9:00 am - 11:00 pm,,,,,PrivateLot,9:00 am - 12:00 am,,10:00 am - 10:00 pm,Yes,,9:00 am - 11:00 pm,9:00 am - 11:00 pm,,9:00 am - 11:00 pm,Yes,,MI Detroit Downriver,Claimed,,mitchs-food-market-brownstown-charter-township,42.1698396,-83.2473752,,4.5,westborn-market-dearborn,alcamos-market-dearborn,the-market-romulus,3,"Grocery,Beer,Wine&Spirits",Mitch’s Food Market,https://www.yelp.com/biz/mitchs-food-market-brownstown-charter-township?osq=food
187,,,,Yes,,,,,,,,,,,,,,8:00 am - 9:00 pm,,,,,,,,,,8:00 am - 9:00 pm,,,,,,9:00 am - 7:00 pm,,10:00 am - 6:00 pm,,,8:00 am - 9:00 pm,8:00 am - 9:00 pm,,8:00 am - 9:00 pm,,,MI Detroit Downriver,Claimed,,nutrition-unlimited-southgate,42.1981624,-83.1956759,Moderate,5.0,lajuice-dearborn,zerbos-health-foods-supermarket-livonia,heres-the-scoop-taylor,8,"JuiceBars&Smoothies,Nutritionists,HealthMarkets",Nutrition Unlimited,https://www.yelp.com/biz/nutrition-unlimited-southgate?osq=food
188,,,,Yes,,,,Casual,,,,,Yes,,Yes,,,11:00 am - 2:00 am,,,,Yes,Yes,,,,Yes,11:00 am - 10:00 pm,,,,Yes,,12:00 pm - 2:00 am,,12:00 pm - 10:00 pm,Yes,Yes,11:00 am - 10:00 pm,11:00 am - 10:00 pm,Yes,11:00 am - 10:00 pm,Yes,Free,MI Detroit Downriver,Claimed,,house-of-shawarma-wyandotte-2,42.2012831,-83.1508666,Pricey,3.0,golden-chicken-dearborn,peepos-subs-and-shawarma-taylor,red-lobster-southgate,10,"Mediterranean,Lebanese",House of Shawarma,https://www.yelp.com/biz/house-of-shawarma-wyandotte-2?osq=food
189,,No,,Yes,,,,,,No,,,Yes,,,,,8:00 am - 8:00 pm,,,,,,,,,,8:00 am - 8:00 pm,,,,,PrivateLot,8:00 am - 8:00 pm,,10:00 am - 6:00 pm,Yes,,8:00 am - 8:00 pm,8:00 am - 8:00 pm,,8:00 am - 8:00 pm,Yes,,MI Detroit Downriver,Claimed,,rays-prime-foods-taylor,42.1972733,-83.2581722,Moderate,4.5,alcamos-market-dearborn,cattlemans-meat-taylor,dominicks-market-taylor,9,"MeatShops,Butcher,Grocery",Ray’s Prime Foods,https://www.yelp.com/biz/rays-prime-foods-taylor?osq=food
190,,,,Yes,,,,Casual,,Yes,,,,,No,,,7:00 am - 5:00 pm,,,,Yes,Yes,,,,No,Closed,,Average,,No,,8:00 am - 5:00 pm,,Closed,Yes,No,7:00 am - 5:00 pm,7:00 am - 5:00 pm,Yes,7:00 am - 5:00 pm,,,MI Detroit Downriver,Claimed,,promenade-artisan-foods-trenton,42.1430109853654,-83.177461065352,Moderate,5.0,kates-kitchen-flat-rock,the-original-philips-restaurant-taylor,moros-dining-allen-park,19,"Breakfast&Brunch,French,American(New)",Promenade Artisan Foods,https://www.yelp.com/biz/promenade-artisan-foods-trenton?osq=food
191,,,,Yes,,,,,,,,,,,,,,11:00 am - 10:00 pm,,,,,Yes,,,,,11:00 am - 10:00 pm,,,,,,11:00 am - 10:00 pm,,11:00 am - 9:00 pm,Yes,No,11:00 am - 10:00 pm,11:00 am - 10:00 pm,,11:00 am - 10:00 pm,,,MI Detroit Downriver,Unclaimed,,penn-station-woodhaven,42.1404383412247,-83.225792816608,,4.5,,,,2,"Caterers,FastFood,Sandwiches",Penn Station,https://www.yelp.com/biz/penn-station-woodhaven?osq=food
192,,,,Yes,,,,,,Yes,,,,,,,,Open 24 hours,,,,,,,,,,Open 24 hours,,,,No,,Open 24 hours,,Open 24 hours,Yes,,Open 24 hours,Open 24 hours,,Open 24 hours,,,MI Detroit Downriver,Unclaimed,,dunkin-donuts-brownstown,42.1707168,-83.2465206,Inexpensive,5.0,,,,2,"Coffee&Tea,Donuts",Dunkin’ Donuts,https://www.yelp.com/biz/dunkin-donuts-brownstown?osq=food
193,,,,Yes,,No,,Casual,,,,,,,No,,,,,,,Yes,No,,,,No,,,Quiet,,No,,,,,Yes,No,,,No,,,No,MI Detroit Downriver,Unclaimed,,kwans-chop-suey-trenton,42.138401,-83.2477578,Inexpensive,4.0,shangri-la-authentic-chinese-cuisine-west-bloomfield,lichee-gardens-monroe-monroe,,14,Cantonese,Kwan’s Chop Suey,https://www.yelp.com/biz/kwans-chop-suey-trenton?osq=food
194,,,,Yes,,FullBar,Casual,,"Thu,Fri,Sat",Yes,,,,No,,,,11:00 am - 2:00 am,,,Yes,Yes,,,Yes,Yes,Yes,11:00 am - 2:00 am,"DJ,Live,JukeBox,MusicVideos",Average,,Yes,PrivateLot,11:00 am - 2:00 am,OutdoorArea/PatioOnly,11:00 am - 2:00 am,,,11:00 am - 2:00 am,11:00 am - 2:00 am,,11:00 am - 2:00 am,Yes,,MI Detroit Downriver,Unclaimed,,marlows-chill-and-grill-sports-trenton,42.139175,-83.266046,Inexpensive,4.5,michaels-on-the-river-flat-rock,club-canton-canton,the-rockery-wyandotte,12,"Bars,American(Traditional),Barbeque",Marlow’s Chill & Grill Sports,https://www.yelp.com/biz/marlows-chill-and-grill-sports-trenton?osq=food
196,,,No,Yes,,No,,Casual,,No,,,Yes,,No,No,No,4:00 pm - 9:00 pm,,,,Yes,Yes,,,,Yes,Closed,,Quiet,,No,Street,4:00 pm - 9:00 pm,,Closed,Yes,No,4:00 pm - 9:00 pm,4:00 pm - 9:00 pm,No,4:00 pm - 9:00 pm,,No,MI Detroit Downriver,Claimed,,maniacis-new-boston,42.1541760275729,-83.3248169347644,Moderate,5.0,,,,6,"Burgers,Italian,Cheesesteaks",Maniaci’s,https://www.yelp.com/biz/maniacis-new-boston?osq=food
197,,,,Yes,,No,Casual,Casual,,No,,,Yes,,No,,No,,,Lunch,,Yes,Yes,,,,Yes,,,Average,,No,PrivateLot,,,,Yes,No,,,No,,,No,MI Detroit Downriver,Unclaimed,,penn-station-taylor,42.1985389,-83.24884,Inexpensive,4.0,vreeland-market-woodhaven,savannahs-trenton,famous-daves-bbq-taylor,24,"FastFood,Sandwiches",Penn Station,https://www.yelp.com/biz/penn-station-taylor?osq=food
198,,,,Yes,,,,,,No,,,,,,,,5:00 am - 7:00 pm,,,,,,Yes,,,,5:00 am - 7:00 pm,,,,Yes,PrivateLot,6:00 am - 7:00 pm,,8:00 am - 5:00 pm,Yes,,5:00 am - 7:00 pm,5:00 am - 7:00 pm,,5:00 am - 7:00 pm,,Free,MI Detroit Downriver,Claimed,,bearclaw-coffee-brownstown,42.167903,-83.269549,Inexpensive,4.5,city-coffeehouse-allen-park,starbucks-taylor,biggby-coffee-dearborn,16,Coffee&Tea,Bearclaw Coffee,https://www.yelp.com/biz/bearclaw-coffee-brownstown?osq=food
199,,,No,Yes,,,,,,,,,,,,,,9:30 am - 9:00 pm,,,,,,,,,,9:30 am - 8:00 pm,,,,,PrivateLot,9:30 am - 9:00 pm,,12:00 pm - 5:00 pm,,,9:30 am - 8:00 pm,9:30 am - 8:00 pm,,9:30 am - 8:00 pm,Yes,,MI Detroit Downriver,Claimed,,the-bulk-store-taylor,42.2123707,-83.2544401,Moderate,4.5,bulk-food-warehouse-dearborn,gayles-chocolates-royal-oak,chocolate-drop-shop-westland,3,CandyStores,The Bulk Store,https://www.yelp.com/biz/the-bulk-store-taylor?osq=food
200,,,,Yes,,FullBar,,Casual,,No,,,,,No,,,,,,,Yes,No,,,,Yes,,,Average,,Yes,,,,,Yes,No,,,Yes,,,Free,MI Detroit Downriver,Unclaimed,,moose-macgregors-brownstown-twp,42.1455084,-83.2667057,Moderate,3.5,pipers-restaurant-flat-rock,waltz-inn-new-boston,moms-restaurant-trenton,25,American(Traditional),Moose MacGregor’s,https://www.yelp.com/biz/moose-macgregors-brownstown-twp?osq=food
201,,,,No,,No,Casual,Casual,,Yes,,,No,,No,,,,,"Breakfast,Brunch,Lunch",,No,Yes,,,,No,,,Average,,No,PrivateLot,,,,Yes,No,,,Yes,,Yes,No,MI Detroit Downriver,Unclaimed,,georges-family-restaurant-trenton,42.14109,-83.1891231,Inexpensive,4.0,kates-kitchen-flat-rock,the-original-philips-restaurant-taylor,moms-restaurant-trenton,17,"Italian,Breakfast&Brunch,American(Traditional)",George’s Family Restaurant,https://www.yelp.com/biz/georges-family-restaurant-trenton?osq=food
202,,,,Yes,,FullBar,Casual,Casual,,Yes,,,Yes,,No,,,11:00 am - 9:00 pm,,Lunch,,Yes,Yes,,,,No,11:00 am - 8:00 pm,,Quiet,,No,PrivateLot,10:00 am - 9:00 pm,,10:00 am - 8:00 pm,Yes,No,11:00 am - 8:00 pm,11:00 am - 8:00 pm,Yes,11:00 am - 8:00 pm,Yes,No,MI Detroit Downriver,Unclaimed,,polonus-restaurant-wyandotte,42.2163772,-83.1505098,Moderate,3.5,krakus-restaurant-detroit,polonia-hamtramck-2,polish-village-cafe-hamtramck-5,28,Polish,Polonus Restaurant,https://www.yelp.com/biz/polonus-restaurant-wyandotte?osq=food
204,,,,Yes,,No,,Casual,,,,,Yes,,No,,Yes,7:00 am - 10:00 pm,,,,Yes,Yes,,,,No,7:00 am - 10:00 pm,,Average,,Yes,,8:00 am - 10:00 pm,,9:00 am - 10:00 pm,Yes,No,7:00 am - 10:00 pm,7:00 am - 10:00 pm,No,7:00 am - 10:00 pm,,No,MI Detroit Downriver,Unclaimed,,subway-taylor-4,42.2404772,-83.2703267,Inexpensive,2.0,bellacinos-pizza-and-grinders-dearborn-2,the-cordial-shoppe-taylor,the-original-philips-restaurant-taylor,5,"Sandwiches,FastFood",Subway,https://www.yelp.com/biz/subway-taylor-4?osq=food
205,,,,Yes,,,,,,,,,,,Yes,,,,,,,,,,,,,,,,,,,,,,,,,,,,,,MI Detroit Downriver,,,edible-arrangements-woodhaven,42.1407618,-83.2252562,Moderate,4.0,amys-hallmark-shop-canton,hoods-do-it-best-wyandotte,mr-instant-signs-southgate,4,"GiftShops,Florists,Chocolatiers&Shops",Edible Arrangements,https://www.yelp.com/biz/edible-arrangements-woodhaven?osq=food
206,,,,No,,FullBar,Casual,Casual,,No,,,No,,No,,,,,,,No,Yes,,,,No,,,Average,,No,PrivateLot,,,,Yes,Yes,,,Yes,,,No,MI Detroit Downriver,Unclaimed,,el-dorado-restaurant-brownstown,42.1488203,-83.2657128,Moderate,4.0,three-hermanos-rockwood,angelinas-mexican-restaurant-allen-park,supermercado-sin-limite-lincoln-park,10,Mexican,El Dorado Restaurant,https://www.yelp.com/biz/el-dorado-restaurant-brownstown?osq=food
207,,,,No,,No,,Casual,,No,,,Yes,,No,,,,,,,No,Yes,,,,No,,,,,No,,,,,Yes,No,,,No,,,No,MI Detroit Downriver,Unclaimed,,chicken-man-taylor,42.1970636,-83.2864291,Inexpensive,4.0,chicken-shack-lincoln-park,sportsmans-pizzeria-wyandotte-2,mr-chicken-dearborn-heights,7,"ChickenWings,American(Traditional)",Chicken Man,https://www.yelp.com/biz/chicken-man-taylor?osq=food
208,,,,Yes,,No,,Casual,,,,,,,No,,,,,,,Yes,Yes,,,,No,,,Average,,No,PrivateLot,,,,Yes,No,,,Yes,,,No,MI Detroit Downriver,Unclaimed,,olympic-flame-family-restaurant-southgate,42.2186398,-83.194279,Inexpensive,3.0,golden-fleece-restaurant-detroit,pegasus-taverna-detroit,auburn-cafe-ecorse,19,Mediterranean,Olympic Flame Family Restaurant,https://www.yelp.com/biz/olympic-flame-family-restaurant-southgate?osq=food
209,,,,Yes,,,,,,No,,,,,,,,,,,,,,,,,,,,,,No,,,,,,,,,,,,,MI Detroit Downriver,Unclaimed,,tim-hortons-taylor-5,42.19763,-83.2677426,Inexpensive,3.5,,,,3,Coffee&Tea,Tim Hortons,https://www.yelp.com/biz/tim-hortons-taylor-5?osq=food
210,,,,,,,,,,No,,,Yes,,,,,,,,,,,,,,,,,,,,,,,,,,,,,,,,MI Detroit Downriver,Unclaimed,,simon-says-bbq-romulus,42.168594,-83.30109,Moderate,4.0,,,,1,FoodTrucks,Simon Says Bbq,https://www.yelp.com/biz/simon-says-bbq-romulus?osq=food
211,,No,,Yes,,Beer&WineOnly,,Casual,,No,,,,,No,,No,10:30 am - 11:00 pm,,"Lunch,Dinner",,Yes,Yes,,,,No,10:30 am - 10:00 pm,,Average,,No,PrivateLot,10:30 am - 11:00 pm,,10:30 am - 10:00 pm,Yes,No,10:30 am - 10:00 pm,10:30 am - 10:00 pm,No,10:30 am - 10:00 pm,,Free,MI Detroit Downriver,Claimed,,mod-pizza-woodhaven,42.1401719977151,-83.2251081097129,Inexpensive,4.0,dominos-pizza-woodhaven-2,vreeland-market-woodhaven,andys-pizza-and-subs-woodhaven,45,"Pizza,FastFood",MOD Pizza,https://www.yelp.com/biz/mod-pizza-woodhaven?osq=food
212,,,,Yes,,,,Casual,,Yes,,,,,No,,,11:00 am - 10:00 pm,,,,Yes,Yes,,,,Yes,11:00 am - 2:30 pm4:30 pm - 10:00 pm,,,,No,,12:00 pm - 10:00 pm,,12:00 pm - 9:00 pm,Yes,Yes,11:30 am - 2:30 pm4:30 pm - 10:00 pm,11:30 am - 2:30 pm4:30 pm - 10:00 pm,,11:30 am - 2:30 pm4:30 pm - 10:00 pm,,,MI Detroit Downriver,Unclaimed,,o-samurai-japanese-steakhouse-taylor-2,42.1971674947767,-83.2590206712484,Pricey,3.0,black-pine-tree-southgate-2,outback-steakhouse-southgate,o-sushi-japanese-restaurant-dearborn,30,"Teppanyaki,SushiBars,Steakhouses",O’samurai Japanese Steakhouse,https://www.yelp.com/biz/o-samurai-japanese-steakhouse-taylor-2?osq=food
213,,No,,Yes,,No,Casual,Casual,,Yes,,,No,,No,,,,,"Breakfast,Brunch",,Yes,Yes,,,,No,,,Average,,No,PrivateLot,,,,Yes,No,,,Yes,,No,Free,MI Detroit Downriver,Unclaimed,,bob-evans-taylor,42.1978537,-83.2345712,Inexpensive,3.0,kates-kitchen-flat-rock,the-original-philips-restaurant-taylor,cracker-barrel-old-country-store-monroe,19,"American(Traditional),Breakfast&Brunch",Bob Evans,https://www.yelp.com/biz/bob-evans-taylor?osq=food
214,No,No,,Yes,,FullBar,Casual,Casual,,Yes,,,Yes,,Yes,,,7:00 am - 9:00 pm,,Brunch,,Yes,Yes,,,,Yes,7:00 am - 9:00 pm,,Average,,No,PrivateLot,8:00 am - 9:00 pm,,8:00 am - 9:00 pm,Yes,Yes,7:00 am - 9:00 pm,7:00 am - 9:00 pm,Yes,7:00 am - 9:00 pm,Yes,No,MI Detroit Downriver,Claimed,,little-daddys-taylor,42.1984934,-83.2506479,Moderate,3.0,little-daddys-southfield-2,nannas-kitchen-wyandotte,tvs-deli-and-diner-trenton,38,Diners,Little Daddy’s,https://www.yelp.com/biz/little-daddys-taylor?osq=food
215,,,,Yes,,FullBar,Casual,Casual,Fri,Yes,,,No,No,No,,,11:00 am - 2:00 pm,,Dinner,No,Yes,No,,Yes,,Yes,11:00 am - 2:00 pm,JukeBox,Loud,,No,PrivateLot,11:00 am - 2:00 pm,OutdoorArea/PatioOnly,12:00 pm - 2:00 pm,Yes,No,11:00 am - 2:00 pm,11:00 am - 2:00 pm,Yes,11:00 am - 2:00 pm,Yes,Free,MI Detroit Downriver,Claimed,,michaels-on-the-river-flat-rock,42.0960681,-83.2942341,Inexpensive,4.0,baldos-restaurant-brownstown,the-rockery-wyandotte,orchard-grove-inn-romulus,12,"Pubs,American(Traditional),Mexican",Michaels On the River,https://www.yelp.com/biz/michaels-on-the-river-flat-rock?osq=food
216,,,,Yes,,No,Casual,Casual,,No,,,Yes,,No,,,8:00 am - 9:00 pm,,Brunch,,Yes,Yes,,,,Yes,8:00 am - 9:00 pm,,Average,,No,PrivateLot,8:00 am - 9:00 pm,,Closed,Yes,No,8:00 am - 9:00 pm,8:00 am - 9:00 pm,Yes,8:00 am - 9:00 pm,,Free,MI Detroit Downriver,Claimed,,tds-coney-island-cafe-brownstown-township,42.1713232,-83.2680375,Moderate,3.5,pipers-restaurant-flat-rock,petes-place-restaurant-brownstown,tvs-deli-and-diner-trenton,4,"Cafes,American(Traditional)",Td’s Coney Island Cafe,https://www.yelp.com/biz/tds-coney-island-cafe-brownstown-township?osq=food
217,,Yes,,Yes,,FullBar,Casual,Casual,,Yes,,,No,,No,,,3:45 pm - 11:00 pm,,"Lunch,Dinner",,Yes,Yes,,,,Yes,3:45 pm - 10:00 pm,,Loud,,No,PrivateLot,11:30 am - 11:00 pm,,11:30 am - 11:00 pm,Yes,No,3:45 pm - 10:00 pm,3:45 pm - 10:00 pm,Yes,3:45 pm - 10:00 pm,Yes,No,MI Detroit Downriver,Claimed,,texas-roadhouse-taylor,42.200428,-83.2585485,Moderate,3.5,merriman-street-grill-romulus,outback-steakhouse-southgate,big-bear-lodge-flat-rock,58,"American(Traditional),Steakhouses,Barbeque",Texas Roadhouse,https://www.yelp.com/biz/texas-roadhouse-taylor?osq=food
218,,,,No,,No,,Casual,,,,,No,,No,,,,,,,No,Yes,,,,No,,,Quiet,,No,,,,,Yes,No,,,Yes,,Yes,No,MI Detroit Downriver,Unclaimed,,taylors-kitchen-taylor,42.2506768,-83.2698448,Inexpensive,4.0,merriman-street-grill-romulus,the-original-philips-restaurant-taylor,rams-horn-dearborn-heights,8,American(Traditional),Taylor’s Kitchen,https://www.yelp.com/biz/taylors-kitchen-taylor?osq=food
219,,,,Yes,,,,,,Yes,,,,,,,,,,,,,,,,,,,,,,,PrivateLot,,,,Yes,,,,,,,,MI Detroit Downriver,Unclaimed,,tasty-boy-donuts-flat-rock,42.0993883,-83.2913169,Inexpensive,4.5,jacks-italian-bakery-melvindale,donutville-usa-dearborn,donut-kastle-taylor,3,Donuts,Tasty Boy Donuts,https://www.yelp.com/biz/tasty-boy-donuts-flat-rock?osq=food
220,,No,,Yes,,FullBar,Casual,Casual,,No,,,Yes,,No,,,11:00 am - 10:00 pm,,Dinner,,Yes,Yes,,,,No,Closed,,Average,,No,PrivateLot,11:00 am - 10:00 pm,,11:30 am - 8:00 pm,Yes,Yes,11:00 am - 10:00 pm,11:00 am - 10:00 pm,Yes,11:00 am - 10:00 pm,No,No,MI Detroit Downriver,Claimed,,hungarian-rhapsody-southgate,42.2133216,-83.1982673,Moderate,4.0,ellies-grill-berkley,portofino-wyandotte,polonia-hamtramck-2,70,"Hungarian,Venues&EventSpaces",Hungarian Rhapsody,https://www.yelp.com/biz/hungarian-rhapsody-southgate?osq=food
221,,,,Yes,,,,,,No,,,,,,,,8:00 am - 7:00 pm,,,,,,,,,,8:00 am - 7:00 pm,,,,,PrivateLot,8:00 am - 7:00 pm,,8:00 am - 7:00 pm,,,8:00 am - 7:00 pm,8:00 am - 7:00 pm,,8:00 am - 7:00 pm,,,MI Detroit Downriver,Unclaimed,,trentwood-farm-market-trenton,42.1402364,-83.2171286,Moderate,3.5,dearborn-farm-market-dearborn,kurtzhals-farms-brownstown-township,blocks-stand-and-greenhouse-romulus,8,"Fruits&Veggies,MeatShops,FarmersMarket",Trentwood Farm Market,https://www.yelp.com/biz/trentwood-farm-market-trenton?osq=food
222,,,,Yes,,FullBar,Casual,Casual,,Yes,,,Yes,,No,,,2:00 pm - 9:30 pm,,Dinner,,Yes,Yes,,,,Yes,Closed,,Average,,No,PrivateLot,2:00 pm - 9:30 pm,,2:00 pm - 8:30 pm,Yes,Yes,2:00 pm - 9:00 pm,2:00 pm - 9:00 pm,Yes,2:00 pm - 9:00 pm,Yes,Free,MI Detroit Downriver,Claimed,,vics-casual-dining-southgate,42.2093136,-83.1985535,Moderate,4.5,moros-dining-allen-park,sibley-gardens-trenton,giovannis-ristorante-detroit,52,Italian,Vic’s Casual Dining,https://www.yelp.com/biz/vics-casual-dining-southgate?osq=food
223,,,,Yes,,,,,,,,,,,Yes,,,,,,,Yes,Yes,,,,,,,,,,,,,,,,,,,,,,MI Detroit Downriver,Unclaimed,,new-china-inn-southgate-2,42.2135082,-83.2046208,,4.5,,,,5,Chinese,New China Inn,https://www.yelp.com/biz/new-china-inn-southgate-2?osq=food
224,,,,Yes,,No,Casual,Casual,,No,,,No,,No,,,,,Lunch,,Yes,Yes,,,,No,,,Quiet,,No,PrivateLot,,,,Yes,No,,,Yes,,Yes,No,MI Detroit Downriver,Unclaimed,,shong-hey-restaurant-trenton,42.141058,-83.210571,Inexpensive,3.5,china-house-flat-rock,cathay-house-restaurant-lincoln-park,china-star-wyandotte,30,"Chinese,Seafood",Shong Hey Restaurant,https://www.yelp.com/biz/shong-hey-restaurant-trenton?osq=food
225,No,No,,Yes,,FullBar,Casual,Casual,,No,,,Yes,,No,,,11:00 am - 11:00 pm,,"Lunch,Dinner",,Yes,Yes,,,,Yes,11:00 am - 10:00 pm,,Average,,No,PrivateLot,11:00 am - 11:00 pm,,11:00 am - 10:00 pm,Yes,Yes,11:00 am - 10:00 pm,11:00 am - 10:00 pm,Yes,11:00 am - 10:00 pm,Yes,Free,MI Detroit Downriver,Claimed,,famous-daves-bbq-taylor,42.1967551,-83.2657373,Moderate,3.5,famous-daves-bbq-roseville,zukins-rib-shack-lincoln-park,texas-roadhouse-taylor,46,Barbeque,Famous Dave’s BBQ,https://www.yelp.com/biz/famous-daves-bbq-taylor?osq=food
226,,No,,Yes,,FullBar,Casual,Casual,,No,,,No,,No,,,11:00 am - 11:00 pm,,"Lunch,Dinner",,Yes,Yes,,,,Yes,11:00 am - 10:00 pm,,Average,,No,PrivateLot,11:00 am - 11:00 pm,,12:00 pm - 10:00 pm,Yes,Yes,11:00 am - 10:00 pm,11:00 am - 10:00 pm,Yes,11:00 am - 10:00 pm,Yes,No,MI Detroit Downriver,Claimed,,mexican-gardens-southgate,42.199226,-83.217124,Moderate,3.5,el-dorado-restaurant-brownstown,manuels-taco-hut-allen-park,angelinas-mexican-restaurant-allen-park,71,Mexican,Mexican Gardens,https://www.yelp.com/biz/mexican-gardens-southgate?osq=food
227,,No,,Yes,,,,,,Yes,,,,,,,,Open 24 hours,,,,,,,,,,Open 24 hours,,,,,,Open 24 hours,,Open 24 hours,Yes,,Open 24 hours,Open 24 hours,,Open 24 hours,,Free,MI Detroit Downriver,Unclaimed,,tim-hortons-southgate-5,42.1992059594743,-83.2252610474825,Inexpensive,2.5,,,,5,"Donuts,Cafes,Sandwiches",Tim Hortons,https://www.yelp.com/biz/tim-hortons-southgate-5?osq=food
228,,,,Yes,,,,Casual,,No,,,,,,,,8:00 am - 11:00 pm,,,,Yes,Yes,,,,,8:00 am - 11:00 pm,,,,,PrivateLot,8:00 am - 11:00 pm,,9:00 am - 10:00 pm,Yes,No,8:00 am - 11:00 pm,8:00 am - 11:00 pm,,8:00 am - 11:00 pm,,,MI Detroit Downriver,Claimed,,jonnas-market-taylor,42.183295,-83.286332,Moderate,3.5,dominicks-market-taylor,soltzs-quality-meats-wyandotte,sportsmans-pizzeria-wyandotte-2,7,"Beer,Wine&Spirits,Pizza,Caterers",Jonna’s Market,https://www.yelp.com/biz/jonnas-market-taylor?osq=food
229,,No,,Yes,,,,,,No,,,,,,,,,,,,,,,,,,,,,,,,,,,Yes,,,,,,,,MI Detroit Downriver,Unclaimed,,phil-mart-oriental-store-taylor,42.2117125,-83.2539141,Moderate,4.0,phil-mart-oriental-store-taylor,red-ribbon-cake-and-coffee-shop-sterling-heights,kim-nhung-superfood-madison-heights,2,ImportedFood,Phil-Mart Oriental Store,https://www.yelp.com/biz/phil-mart-oriental-store-taylor?osq=food
230,,,,Yes,,,,Casual,,,,,,,No,,,11:00 am - 10:00 pm,,,,,,,,,,11:00 am - 10:00 pm,,,,,,11:00 am - 10:00 pm,,11:00 am - 10:00 pm,Yes,No,11:00 am - 10:00 pm,11:00 am - 10:00 pm,,11:00 am - 10:00 pm,,,MI Detroit Downriver,Claimed,,chipotle-mexican-grill-woodhaven,42.1404069156823,-83.2250933211024,Inexpensive,3.0,,,,12,"Mexican,FastFood",Chipotle Mexican Grill,https://www.yelp.com/biz/chipotle-mexican-grill-woodhaven?osq=food
231,,,,No,,,,Casual,,Yes,,,,,No,,No,10:00 am - 9:00 pm,,,,Yes,Yes,,,,,10:00 am - 8:00 pm,,,,Yes,,10:00 am - 9:00 pm,,10:00 am - 8:00 pm,Yes,Yes,10:00 am - 9:00 pm,10:00 am - 8:00 pm,,10:00 am - 9:00 pm,,,MI Detroit Downriver,Unclaimed,,mi-casa-es-su-casa-lincoln-park-2,42.22742,-83.180479,Inexpensive,5.0,,,,3,"Mexican,FastFood,Sandwiches",Mi Casa Es Su Casa,https://www.yelp.com/biz/mi-casa-es-su-casa-lincoln-park-2?osq=food
232,,,,Yes,,,,,,,,,,,No,,,10:30 am - 11:00 pm,,,,,Yes,,,,,10:30 am - 10:00 pm,,,,Yes,,10:30 am - 11:00 pm,,11:00 am - 8:00 pm,Yes,No,10:30 am - 10:00 pm,10:30 am - 10:00 pm,Yes,10:30 am - 10:00 pm,,,MI Detroit Downriver,Unclaimed,,captain-nemos-flat-rock,42.0962447,-83.2937267,,4.5,kates-kitchen-flat-rock,michaels-on-the-river-flat-rock,big-bear-lodge-flat-rock,5,"Salad,American(Traditional),Sandwiches",Captain Nemo’s,https://www.yelp.com/biz/captain-nemos-flat-rock?osq=food
233,,No,,Yes,,FullBar,Casual,Casual,,No,,,No,,No,,,9:00 am - 10:00 pm,,"Lunch,Dinner",,No,Yes,,,,Yes,9:00 am - 10:00 pm,,Average,,No,Garage,9:00 am - 10:00 pm,,9:00 am - 10:00 pm,Yes,No,9:00 am - 10:00 pm,9:00 am - 10:00 pm,Yes,9:00 am - 10:00 pm,Yes,No,MI Detroit Downriver,Claimed,,sora-romulus-2,42.209951653865,-83.3620464431933,Moderate,3.0,izakaya-sanpei-canton,matsuchan-canton,osushi-japanese-restaurant-canton-2,271,"SushiBars,Japanese",Sora,https://www.yelp.com/biz/sora-romulus-2?osq=food
234,,No,,Yes,,No,Casual,Casual,,Yes,,,No,,No,,,6:00 am - 1:00 am,,"Breakfast,Brunch,Lunch,Dinner",,Yes,Yes,,,,Yes,6:00 am - 12:00 am,,Average,,No,PrivateLot,6:00 am - 1:00 am,,6:00 am - 12:00 am,Yes,No,6:00 am - 12:00 am,6:00 am - 12:00 am,Yes,6:00 am - 12:00 am,Yes,Free,MI Detroit Downriver,Unclaimed,,big-boy-restaurant-romulus,42.245122,-83.348749,Inexpensive,2.5,dearborn-coney-island-restaurant-dearborn,romulus-house-restaurant-romulus,merriman-street-grill-romulus,39,"American(Traditional),Breakfast&Brunch",Big Boy Restaurant,https://www.yelp.com/biz/big-boy-restaurant-romulus?osq=food
235,,,,Yes,,,,Casual,,,,,No,,No,,,,,,,Yes,Yes,,,,,,,,,No,,,,,Yes,No,,,Yes,,,,MI Detroit Downriver,Unclaimed,,big-boy-lincoln-park,42.2576112690426,-83.1919510364295,Moderate,4.0,bills-ham-place-lincoln-park,famous-hamburger-east-dearborn-dearborn-2,charlies-family-dining-lincoln-park,8,"American(Traditional),Burgers",Big Boy,https://www.yelp.com/biz/big-boy-lincoln-park?osq=food
236,,,,Yes,,No,,Casual,,Yes,,,No,,No,,,7:00 am - 2:00 pm,,Breakfast,,Yes,Yes,,,,No,7:00 am - 2:00 pm,,Average,,No,,7:00 am - 2:00 pm,,7:00 am - 2:00 pm,Yes,No,7:00 am - 2:00 pm,7:00 am - 2:00 pm,Yes,7:00 am - 2:00 pm,,Free,MI Detroit Downriver,Claimed,,the-original-philips-restaurant-taylor,42.255826,-83.246096,Inexpensive,4.0,dearborn-coney-island-restaurant-dearborn,kates-kitchen-flat-rock,bills-ham-place-lincoln-park,18,"Breakfast&Brunch,American(Traditional),Sandwiches",The Original Philips Restaurant,https://www.yelp.com/biz/the-original-philips-restaurant-taylor?osq=food
237,,,,Yes,,,,Casual,,,,,,,No,,,7:00 am - 4:00 am,,,,Yes,Yes,,,,,7:00 am - 3:00 am,,,,,,7:00 am - 4:00 am,,7:00 am - 3:00 am,Yes,No,7:00 am - 3:00 am,7:00 am - 3:00 am,,7:00 am - 3:00 am,,,MI Detroit Downriver,,,taco-bell-romulus-2,42.231644,-83.386011,,4.0,,,,4,"Tex-Mex,FastFood,Mexican",Taco Bell,https://www.yelp.com/biz/taco-bell-romulus-2?osq=food
239,,,,Yes,,,,Casual,,No,,,,,No,,,,,,,No,Yes,,,,Yes,,,,,No,,,,,Yes,No,,,,,,,MI Detroit Downriver,Unclaimed,,wings-bar-and-grill-romulus,42.2359758,-83.3267605,Moderate,3.5,chicken-shack-lincoln-park,primos-pizza-allen-park,chicken-man-taylor,6,ChickenWings,Wings Bar & Grill,https://www.yelp.com/biz/wings-bar-and-grill-romulus?osq=food
240,,No,,Yes,,No,"Casual,Trendy",Casual,,Yes,,,No,,Yes,,,11:00 am - 10:00 pm,,"Lunch,Dinner",,Yes,Yes,,,,No,Closed,,Average,,No,Street,4:00 pm - 10:00 pm,,4:00 pm - 9:00 pm,Yes,No,11:00 am - 9:00 pm,11:00 am - 9:00 pm,No,11:00 am - 9:00 pm,,Free,MI Detroit Downriver,Claimed,,major-tomato-allen-park,42.2584677,-83.2079813,Moderate,4.5,louis-pizza-hazel-park,moros-dining-allen-park,sportsmans-pizzeria-wyandotte-2,104,"Pizza,Salad,Italian",Major Tomato,https://www.yelp.com/biz/major-tomato-allen-park?osq=food
241,,No,,Yes,,FullBar,"Intimate,Classy",Casual,,Yes,,,Yes,,No,,,11:30 am - 10:00 pm,,Dinner,,Yes,No,,,,No,Closed,,Quiet,,Yes,"Street,PrivateLot",11:30 am - 10:00 pm,,12:00 pm - 7:00 pm,Yes,Yes,11:30 am - 9:00 pm,11:30 am - 9:00 pm,Yes,11:30 am - 9:00 pm,Yes,Free,MI Detroit Downriver,Claimed,,savannahs-trenton,42.148947,-83.176561,Moderate,4.0,sibley-gardens-trenton,outback-steakhouse-southgate,big-bear-lodge-flat-rock,44,"American(New),Seafood,Steakhouses",Savannah’s,https://www.yelp.com/biz/savannahs-trenton?osq=food
243,,,,Yes,,No,Casual,Casual,,No,,,Yes,,No,,,,,"Lunch,Dinner",,Yes,Yes,,,,No,,,Average,,No,PrivateLot,,,,Yes,No,,,No,,Yes,No,MI Detroit Downriver,Claimed,,jersey-giant-submarine-woodhaven,42.1401363,-83.2271975,Inexpensive,4.0,captain-nemos-submarine-sandwiches-romulus,mancinos-pizza-and-grinders-of-taylor-taylor,olgas-kitchen-woodhaven,36,Sandwiches,Jersey Giant Submarine,https://www.yelp.com/biz/jersey-giant-submarine-woodhaven?osq=food
244,,,,Yes,,,,,,Yes,,,,,,,,3:00 pm - 11:00 pm,,,,,,,,,,3:00 pm - 7:00 pm,,,,,,10:00 am - 11:00 pm,,10:00 am - 7:00 pm,,,3:00 pm - 7:00 pm,3:00 pm - 7:00 pm,,3:00 pm - 7:00 pm,,,MI Detroit Downriver,Unclaimed,,huron-turkey-farm-romulus,42.166842,-83.3453399,Moderate,5.0,kurtzhals-farms-brownstown-township,eastern-market-detroit-4,blocks-stand-and-greenhouse-romulus,4,FarmersMarket,Huron Turkey Farm,https://www.yelp.com/biz/huron-turkey-farm-romulus?osq=food
245,,No,,Yes,,FullBar,Casual,Casual,,No,,,No,,No,,,,,"Breakfast,Lunch,Dinner",,No,Yes,,,,Yes,,,Average,,No,,,,,Yes,No,,,Yes,,,No,MI Detroit Downriver,Unclaimed,,mezza-mediterranean-grille-detroit,42.2105221146421,-83.3564418013295,Moderate,2.5,detroit-metropolitan-airport-dtw-detroit,savannahs-trenton,longhorn-steakhouse-detroit,97,Mediterranean,Mezza Mediterranean Grille,https://www.yelp.com/biz/mezza-mediterranean-grille-detroit?osq=food
246,,,,Yes,,No,,Casual,,No,,,No,,Yes,,,11:00 am - 12:00 am,,,,Yes,Yes,,,,No,11:00 am - 11:00 pm,,Quiet,,No,,11:00 am - 12:00 am,,12:00 pm - 11:00 pm,Yes,No,11:00 am - 11:00 pm,11:00 am - 11:00 pm,No,11:00 am - 11:00 pm,,No,MI Detroit Downriver,Unclaimed,,sammys-pizza-brownstown-charter-township,42.0938065270299,-83.2353568026892,Inexpensive,4.5,moms-restaurant-trenton,palermo-pizzeria-and-restaurant-canton,red-lobster-southgate,17,Pizza,Sammy’s Pizza,https://www.yelp.com/biz/sammys-pizza-brownstown-charter-township?osq=food
247,,No,,Yes,,No,Casual,Casual,,Yes,,,No,,No,,,Open 24 hours,,"Breakfast,Lunch,Dinner,LateNight",,Yes,Yes,,,,No,Open 24 hours,,Average,,No,PrivateLot,Open 24 hours,,Open 24 hours,Yes,No,Open 24 hours,Open 24 hours,Yes,Open 24 hours,Yes,No,MI Detroit Downriver,Unclaimed,,zorbas-coney-island-riverview,42.1752066,-83.188567,Inexpensive,4.0,nannas-kitchen-wyandotte,lafayette-coney-island-detroit,tvs-deli-and-diner-trenton,35,Diners,Zorba’s Coney Island,https://www.yelp.com/biz/zorbas-coney-island-riverview?osq=food
248,,,,Yes,,,,,,,,,,,,,,,,,,,,,,,,,,,,,,,,,,,,,,,,,MI Detroit Downriver,Unclaimed,,7-eleven-brownstown-twp,42.1691794,-83.2277153,Inexpensive,3.5,7-eleven-dearborn,seven-eleven-stores-dearborn,,3,ConvenienceStores,7-Eleven,https://www.yelp.com/biz/7-eleven-brownstown-twp?osq=food
249,,,,Yes,,FullBar,Casual,Casual,,Yes,,,,No,No,,,11:00 am - 2:00 am,,,No,Yes,Yes,,Yes,,Yes,11:00 am - 2:00 am,,VeryLoud,,Yes,,11:00 am - 2:00 am,OutdoorArea/PatioOnly,11:00 am - 1:30 am,Yes,No,11:00 am - 2:00 am,11:00 am - 2:00 am,Yes,11:00 am - 2:00 am,,Free,MI Detroit Downriver,Claimed,,champions-sports-grill-brownstown-charter-township,42.1698411181658,-83.2493897640204,Moderate,3.5,portofino-wyandotte,moros-dining-allen-park,sibley-gardens-trenton,25,"SportsBars,American(Traditional)",Champions Sports Grill,https://www.yelp.com/biz/champions-sports-grill-brownstown-charter-township?osq=food
250,,,,Yes,,No,,Casual,,Yes,,,,,No,,Yes,Open 24 hours,,,,Yes,Yes,,,,No,Open 24 hours,,,,No,,Open 24 hours,,Open 24 hours,Yes,No,Open 24 hours,Open 24 hours,No,Open 24 hours,,,MI Detroit Downriver,Claimed,,white-castle-woodhaven,42.1408526,-83.2285155,Inexpensive,4.0,a-and-w-root-beer-drive-in-flat-rock,taco-bell-flat-rock,sonnys-hamburgers-detroit,8,"FastFood,Burgers",White Castle,https://www.yelp.com/biz/white-castle-woodhaven?osq=food
251,,,,Yes,,,,,,Yes,,,,,,,,11:30 am - 10:00 pm,,,,,,,,,,11:30 am - 10:00 pm,,,,,,11:30 am - 10:00 pm,,11:30 am - 10:00 pm,Yes,,11:30 am - 10:00 pm,11:30 am - 10:00 pm,,11:30 am - 10:00 pm,,No,MI Detroit Downriver,Unclaimed,,dairy-queen-trenton-6,42.1415104299345,-83.1877988467351,Moderate,4.5,heres-the-scoop-taylor,bob-jos-frozen-custard-wyandotte,strohs-ice-cream-parlour-wyandotte,4,"IceCream&FrozenYogurt,FastFood",Dairy Queen,https://www.yelp.com/biz/dairy-queen-trenton-6?osq=food
252,,,,Yes,,,Casual,Casual,,No,,,No,,No,,,10:30 am - 9:30 pm,,,,No,Yes,,,,No,10:30 am - 9:00 pm,,Quiet,,No,PrivateLot,12:00 pm - 9:30 pm,,1:00 pm - 9:00 pm,Yes,No,10:30 am - 9:00 pm,10:30 am - 9:00 pm,Yes,10:30 am - 9:00 pm,,Free,MI Detroit Downriver,Unclaimed,,joa-sushi-southgate,42.225806,-83.229274,Moderate,3.5,black-pine-tree-southgate-2,o-sushi-japanese-restaurant-dearborn,lockharts-bbq-royal-oak,22,"SushiBars,Japanese",JoA Sushi,https://www.yelp.com/biz/joa-sushi-southgate?osq=food
253,,,,Yes,,FullBar,Upscale,,"Thu,Fri,Sat",Yes,,,,,,,,,,,No,Yes,,,,,Yes,,Live,VeryLoud,,Yes,,,No,,,,,,,,,,MI Detroit Downriver,Unclaimed,,wine-dotte-bistro-wyandotte,42.203992,-83.148508,Moderate,3.5,portofino-wyandotte,oak-caf%C3%A9-wyandotte-2,red-lobster-southgate,12,WineBars,Wine Dotte Bistro,https://www.yelp.com/biz/wine-dotte-bistro-wyandotte?osq=food
254,,No,,Yes,,Beer&WineOnly,,Casual,,,,,Yes,,No,,,9:00 am - 1:00 am,,,,No,No,,,,Yes,9:00 am - 12:00 am,,Average,,No,PrivateLot,9:00 am - 1:00 am,,11:00 am - 10:00 pm,Yes,No,9:00 am - 1:00 am,9:00 am - 12:00 am,No,9:00 am - 1:00 am,Yes,,MI Detroit Downriver,Claimed,,the-cordial-shoppe-taylor,42.2423046,-83.268995,Inexpensive,4.0,the-original-philips-restaurant-taylor,dominicks-market-taylor,sylvias-super-sub-shop-allen-park,21,"Beer,Wine&Spirits,Sandwiches,MeatShops",The Cordial Shoppe,https://www.yelp.com/biz/the-cordial-shoppe-taylor?osq=food
255,,No,,Yes,,,Casual,Casual,,Yes,,,,,No,,,,,"Lunch,Dinner",,Yes,Yes,,,,No,,,Quiet,,No,PrivateLot,,,,Yes,No,,,Yes,,,No,MI Detroit Downriver,Unclaimed,,mandarin-kitchen-southgate,42.1975212097168,-83.2128372192383,Inexpensive,4.0,hong-kong-inn-lincoln-park,cathay-house-restaurant-lincoln-park,china-star-wyandotte,12,Chinese,Mandarin Kitchen,https://www.yelp.com/biz/mandarin-kitchen-southgate?osq=food
258,,,,Yes,,No,,Casual,,Yes,,,,,Yes,,,,,,,Yes,Yes,,,,Yes,,,Quiet,,Yes,,,,,Yes,No,,,No,,Yes,No,MI Detroit Downriver,Unclaimed,,jims-galley-rockwood,42.095386,-83.1920178,Inexpensive,4.0,donutville-usa-dearborn,vreeland-market-woodhaven,,8,Pizza,Jim’s Galley,https://www.yelp.com/biz/jims-galley-rockwood?osq=food
259,,,,Yes,,No,,Casual,,Yes,,,No,,No,,,6:00 am - 10:00 pm,,,,No,Yes,,,,Yes,6:00 am - 10:00 pm,,Average,,Yes,Street,6:00 am - 10:00 pm,,7:00 am - 10:00 pm,Yes,No,6:00 am - 10:00 pm,6:00 am - 10:00 pm,Yes,6:00 am - 10:00 pm,Yes,No,MI Detroit Downriver,Claimed,,dix-coney-island-allen-park-2,42.2582945,-83.2085016,Inexpensive,4.0,senate-coney-island-and-restaurant-dearborn,dearborn-coney-island-restaurant-dearborn,the-original-philips-restaurant-taylor,15,"Diners,Breakfast&Brunch",Dix Coney Island,https://www.yelp.com/biz/dix-coney-island-allen-park-2?osq=food
